hotel_name,road_addr,hotel_id,region,market,결정 등급,객실수,호텔규모,업태구분명,속성정보,lat,lng
아르반 호텔,부산 부산진구 중앙대로691번길 32,101,부산,국내,미등급,94.0,100개 미만,숙박업 기타,분류,35.154689032514,129.05724278339
솔라리아 니시테츠 부산,부산 부산진구 서면로 20,102,부산,국내,미등급,203.0,200개 이상,일반호텔,분류,35.1523224768625,129.058176948963
부산 비즈니스 호텔,부산 부산진구 부전로 67,104,부산,국내,3성,233.0,200개 이상,관광호텔업,분류,35.1561122699992,129.054528292776
스탠포드 인 부산,부산 중구 구덕로 53,105,부산,국내,3성,132.0,200개 미만,관광호텔업,분류,35.0978234452324,129.029942306445
크라운 하버호텔 부산,부산 중구 중앙대로 114,106,부산,국내,미등급,500.0,200개 이상,일반호텔,분류,35.1075544656556,129.036819610921
라마다 앙코르 바이 윈덤 부산역,부산 동구 초량동 중앙대로196번길 10,107,부산,국내,미등급,446.0,200개 이상,일반호텔,분류,35.1142584822657,129.04033270974
센텀 프리미어 호텔,부산 해운대구 센텀1로 17,108,부산,국내,미등급,462.0,200개 이상,일반호텔,분류,35.1669376382204,129.131595073229
베니키아 호텔 해운대,부산 해운대구 해운대해변로 317,112,부산,국내,3성,166.0,200개 미만,관광호텔업,분류,35.1622634178643,129.164814793738
마리안느호텔,부산 해운대구 해운대해변로 310,114,부산,국내,3성,127.0,200개 미만,관광호텔업,분류,35.16143991876719,129.16461519700997
베스트웨스턴 해운대 호텔,부산 해운대구 구남로 42,115,부산,국내,미등급,134.0,200개 미만,일반호텔,분류,35.1604350607438,129.161179100749
페어필드 바이 메리어트 부산,부산 해운대구 해운대해변로 314,117,부산,국내,3성,225.0,200개 이상,관광호텔업,분류,35.1616481346247,129.16485927535
이비스 버젯 앰배서더 부산 해운대,부산 해운대구 해운대해변로209번길 8,119,부산,국내,2성,178.0,200개 미만,관광호텔업,분류,35.159078472916,129.154488868817
이비스 앰배서더 부산 해운대,부산 해운대구 해운대해변로237번길 12,120,부산,국내,미등급,237.0,200개 이상,관광호텔,분류,35.1599218718628,129.157959627703
라발스 호텔 부산,부산 영도구 봉래나루로 82,121,부산,국내,미등급,380.0,200개 이상,일반호텔,분류,35.0945243975235,129.039155954899
펠릭스 바이 STX 호텔 & 스위트,부산 해운대구 해운대로 620,122,부산,국내,미등급,미분류,200개 이상,미분류,미분류,35.1629774462048,129.15849160065
신라스테이 해운대,부산 해운대구 해운대로570번길 46,123,부산,국내,4성,407.0,200개 이상,관광호텔업,분류,35.1598034054018,129.158736352809
코오롱 씨클라우드 호텔,부산 해운대구 해운대해변로 287,124,부산,국내,미등급,208.0,200개 이상,숙박업(생활),분류,35.1604174298802,129.16222733657
아바니 센트럴 부산,부산 남구 전포대로 133,139,부산,국내,4성,281.0,200개 이상,관광호텔업,분류,35.1482777453333,129.065437098387
롯데 호텔 서울,서울 중구 을지로 30,140,서울,국내,5성,1015.0,200개 이상,관광호텔업,분류,37.5648098108631,126.981089534575
그랜드 하얏트 서울,서울 용산구 소월로 322,141,서울,국내,5성,615.0,200개 이상,관광호텔업,분류,37.5397629769285,126.996240829219
웨스틴 조선호텔 서울,서울 중구 소공로 106,142,서울,국내,5성,462.0,200개 이상,관광호텔업,분류,37.5644389782816,126.980099468802
더 플라자 서울 오토그래프 컬렉션,서울 중구 소공로 119,143,서울,국내,5성,410.0,200개 이상,관광호텔업,분류,37.5646711366935,126.977913420541
포시즌스 호텔 서울,서울 종로구 새문안로 97,147,서울,국내,5성,317.0,200개 이상,관광호텔업,분류,37.5707662406581,126.975420617907
서울신라호텔,서울 중구 동호로 249,150,서울,국내,5성,464.0,200개 이상,관광호텔업,분류,37.5567184328214,127.005728706384
밀레니엄 힐튼 서울,서울 중구 소월로 50,153,서울,국내,미등급,미분류,200개 이상,미분류,미분류,37.555326869140345,126.9754866901112
호텔 농심,부산 동래구 금강공원로20번길 23,170,부산,국내,5성,240.0,200개 이상,관광호텔업,분류,35.2199300615091,129.082142815029
롯데 호텔 부산,부산 부산진구 가야대로 772,171,부산,국내,5성,650.0,200개 이상,관광호텔업,분류,35.156642373039,129.056002226069
히든 클리프 호텔 앤 네이처,제주특별자치도 서귀포시 상예동 625,189,제주,국내,5성,250.0,200개 이상,관광호텔_제주,분류,33.2543646,126.4031521
스위트 호텔 제주,제주특별자치도 서귀포시 중문관광로72번길 67,190,제주,국내,미등급,90.0,100개 미만,관광호텔,분류,33.2490448197189,126.408428634179
제주 신라 호텔,제주특별자치도 서귀포시 중문관광로72번길 75,191,제주,국내,미등급,429.0,200개 이상,관광호텔,분류,33.2471639473767,126.407955114741
롯데호텔 제주,제주특별자치도 제주시 도령로 83,192,제주,국내,5성,500.0,200개 이상,관광호텔_제주,분류,33.4906945837847,126.486477218467
제주 씨에스 호텔 앤 리조트,제주특별자치도 서귀포시 중문관광로 198,193,제주,국내,미등급,30.0,100개 미만,관광호텔,분류,33.2425262560668,126.420878089828
제주 부영호텔 리조트,제주특별자치도 서귀포시 중문관광로 216,194,제주,국내,5성,187.0,200개 미만,관광호텔_제주,분류,33.2421273538009,126.42226882473
WE 호텔 제주,제주특별자치도 서귀포시 1100로 453-95,195,제주,국내,5성,71.0,100개 미만,관광호텔_제주,분류,33.2861974015548,126.444080619289
그랜드 조선 제주,제주특별자치도 서귀포시 중문관광로72번길 60,196,제주,국내,미등급,248.0,200개 이상,관광호텔,분류,33.25235805009302,126.40800175200576
서귀포 칼 호텔,제주특별자치도 서귀포시 칠십리로 242,197,제주,국내,미등급,미분류,200개 이상,미분류,미분류,33.24648461203475,126.58176182117477
여수 호텔 jcs,전남 여수시 돌산읍 돌산로 3169-14,198,전라,국내,미등급,151.0,200개 미만,관광호텔,분류,34.7038003806027,127.757605805693
소노캄 여수,전남 여수시 오동도로 111,199,전라,국내,5성,311.0,200개 이상,관광호텔업,분류,34.7422890110514,127.75428291237
히든베이 호텔,전남 여수시 신월로 496-25,200,전라,국내,4성,131.0,200개 미만,관광호텔업,분류,34.7215224276055,127.699639500815
여수 유탑 마리나 호텔 리조트,전남 여수시 오동도로 61-15,201,전라,국내,미등급,399.0,200개 이상,숙박업(생활),분류,34.7442830320685,127.750584045466
여수 베네치아 호텔&리조트,전남 여수시 오동도로 61-13,202,전라,국내,미등급,343.0,200개 이상,숙박업(생활),분류,34.7457868621103,127.751762191906
여수 라마다프라자 호텔,전남 여수시 돌산읍 강남로 11,203,전라,국내,미등급,427.0,200개 이상,숙박업(생활),분류,34.7169604476228,127.7483579029
호텔 토마스 명동,서울 중구 세종대로16길 26,205,서울,국내,3성,123.0,200개 미만,관광호텔업,분류,37.5631081,126.9783441
트레블로지 명동 시티홀 호텔,서울 중구 세종대로16길 22,206,서울,국내,3성,129.0,200개 미만,관광호텔업,분류,37.5630741514274,126.978078349656
staz 스타즈 호텔 명동 1호점,서울 중구 충무로9길 20,207,서울,국내,미등급,미분류,200개 이상,미분류,미분류,37.56698798355915,126.9911937544634
호텔 미드시티 명동,서울 중구 다동길 30,208,서울,국내,3성,140.0,200개 미만,관광호텔업,분류,37.5676431498128,126.980945743871
나인트리 호텔 명동,서울 중구 명동10길 51,209,서울,국내,3성,144.0,200개 미만,관광호텔업,분류,37.5615886250724,126.986025451697
호텔 그레이스리 서울,서울 중구 세종대로12길 12,210,서울,국내,3성,336.0,200개 이상,관광호텔업,분류,37.5615970265873,126.976968686944
뉴국제 호텔,서울 중구 세종대로22길 12,211,서울,국내,3성,142.0,200개 미만,관광호텔업,분류,37.5679432954487,126.977976068462
호텔다움,울산 중구 번영로 538,212,경상,국내,2성,68.0,100개 미만,관광호텔업,분류,35.5669580842612,129.341524100378
롯데호텔 울산,울산 남구 삼산로 282,213,경상,국내,미등급,미분류,200개 이상,미분류,미분류,35.53879169257699,129.33804929090147
울산 시티 호텔,울산 남구 삼산로 246,214,경상,국내,미등급,90.0,100개 미만,관광호텔,분류,35.5382894852821,129.334127904739
해야관광호텔,울산 남구 삼산로395번길 11,215,경상,국내,미등급,미분류,200개 이상,미분류,미분류,35.5406889502952,129.351015308485
롯데시티호텔 울산,울산 남구 삼산로 204,216,경상,국내,3성,349.0,200개 이상,관광호텔업,분류,35.5375358147425,129.329616011079
신라스테이 울산,울산광역시 남구 삼산로 200,217,경상,국내,3성,335.0,200개 이상,관광호텔업,분류,35.5374199,129.3291229
판도라 호텔,울산 남구 삼산로392번길 8,218,경상,국내,2성,70.0,100개 미만,관광호텔업,분류,35.5389014805603,129.349663821527
H호텔,울산 남구 화합로178번길 7,219,경상,국내,1성,44.0,100개 미만,관광호텔업,분류,35.540671512542,129.340266851454
여우비 관광호텔,울산 남구 산업로647번길 14,221,경상,국내,2성,105.0,200개 미만,관광호텔업,분류,35.5392895117956,129.349407699073
브라운도트 신천점,울산 북구 매산5로 14,222,경상,국내,미등급,미분류,200개 이상,미분류,미분류,35.63622896888259,129.35362028559385
토요코인 울산삼산동,울산 남구 삼산로 308,223,경상,국내,2성,283.0,200개 이상,관광호텔업,분류,35.5396167758738,129.340719496915
에쉬튼(ASHTON) 호텔,울산 남구 중앙로213번길 8,224,경상,국내,미등급,미분류,200개 이상,미분류,미분류,35.53986322879435,129.3110819651066
주식회사 라한호텔(울산),울산 동구 방어진순환도로 871,225,경상,국내,미등급,미분류,200개 이상,미분류,미분류,35.5192899372501,129.430051196384
E호텔,울산 북구 강동산하2로 7,226,경상,국내,미등급,미분류,200개 이상,미분류,미분류,35.6262831718146,129.441010411903
블루오션뷰,울산 울주군 서생면 진하해변길 74,227,경상,국내,미등급,미분류,200개 이상,미분류,미분류,35.3842843401401,129.34592331383894
그랜드플라자청주호텔,충북 청주시 청원구 충청대로 114,228,충청,국내,5성,328.0,200개 이상,관광호텔업,분류,36.666717686617,127.495037086758
호텔나무,인천 미추홀구 경인로435번길 7-8,229,경기,국내,미등급,미분류,200개 이상,미분류,미분류,37.458618262343975,126.68838759516686
뉴베라관광호텔,충북 청주시 흥덕구 풍년로193번길 32,230,충청,국내,미등급,미분류,200개 이상,미분류,미분류,36.6279645081852,127.43016108601
마크관광호텔,충북 청주시 흥덕구 가로수로1164번길 41-34,231,충청,국내,미등급,미분류,200개 이상,미분류,미분류,36.62563783306088,127.42864782461923
세종스파텔,충북 청주시 청원구 내수읍 신기초정로 699,232,충청,국내,1성,60.0,100개 미만,관광호텔업,분류,36.7190393946979,127.598639518461
관광호텔 뮤제오,충북 청주시 흥덕구 가로수로1164번길 41-20,233,충청,국내,3성,59.0,100개 미만,관광호텔업,분류,36.6254131951132,127.428067355893
수안보 상록호텔,충북 충주시 수안보면 주정산로 22,234,충청,국내,3성,101.0,200개 미만,관광호텔업,분류,36.84784873144494,127.9890484251124
수안보 파크관광호텔,충북 충주시 수안보면 탑골1길 36,235,충청,국내,2성,111.0,200개 미만,관광호텔업,분류,36.8445362715069,127.9806903902498
THE조선호텔 수안보,충북 충주시 수안보면 조산공원길 99,236,충청,국내,2성,103.0,200개 미만,관광호텔업,분류,36.845686441754,127.993984975238
리버호텔,"충청북도 충주시 애향로 35, 봉방동, 충주",237,충청,국내,2성,65.0,100개 미만,관광호텔업,분류,36.974274,127.9140947
호텔 더 베이스(후렌드리호텔),제주특별자치도 제주시 사장3길 33,238,제주,국내,미등급,미분류,200개 이상,미분류,미분류,33.48274960186887,126.49124961164816
청풍레이크호텔,충북 제천시 청풍면 청풍호로 1798,239,충청,국내,3성,180.0,200개 미만,관광호텔업,분류,37.01687847453753,128.1771166084704
레이크힐스호텔속리산,충북 보은군 속리산면 법주사로 305,240,충청,국내,2성,132.0,200개 미만,관광호텔업,분류,36.5345633448644,127.8255500015506
거성호텔,충북 음성군 맹동면 장성로 107,241,충청,국내,3성,65.0,100개 미만,관광호텔업,분류,36.9051751364059,127.545743442611
단양관광호텔,충북 단양군 단양읍 삼봉로 31,242,충청,국내,3성,77.0,100개 미만,관광호텔업,분류,36.9820016191617,128.348517779925
부산 다이아몬드호텔,부산 연제구 월드컵대로164번길 26,243,부산,국내,미등급,미분류,200개 이상,미분류,미분류,35.187706156094,129.079336365169
시애틀비호텔,부산 연제구 거제천로154번길 42,244,부산,국내,2성,55.0,100개 미만,관광호텔업,분류,35.1863005474574,129.078905378187
아르반시티 호텔,부산 연제구 반송로 20,245,부산,국내,3성,137.0,200개 미만,관광호텔업,분류,35.1869695202154,129.083279924096
더킹호텔,부산 연제구 과정로 161,246,부산,국내,미등급,미분류,200개 이상,미분류,미분류,35.1858991533907,129.10686715265305
호텔아쿠아펠리스,부산 수영구 광안해변로 225,247,부산,국내,3성,111.0,200개 미만,관광호텔업,분류,35.1540793784093,129.118805964445
유토피아관광호텔,부산 수영구 무학로9번길 133,248,부산,국내,2성,43.0,100개 미만,관광호텔업,분류,35.1674282548968,129.117097946689
돈비치관광호텔,부산 수영구 광남로 96,249,부산,국내,미등급,미분류,200개 이상,미분류,미분류,35.15035129455993,129.1151467044745
호메르스 호텔,부산 수영구 광안해변로 217,250,부산,국내,3성,143.0,200개 미만,관광호텔업,분류,35.1534266,129.1179962
프리미엄 브이관광호텔,부산 수영구 남천바다로33번길 51,251,부산,국내,미등급,미분류,200개 이상,미분류,미분류,35.1506603292259,129.115408156793
스타호텔,전북 부안군 변산면 채석강길 33,253,전라,국내,미등급,미분류,200개 이상,미분류,미분류,35.62727656777811,126.4699373643378
H-AVENUE 광안리점,부산 수영구 민락수변로 29,254,부산,국내,미등급,30.0,100개 미만,관광호텔,분류,35.1532343346657,129.12465640262192
호텔런더너 광안점,부산 수영구 민락본동로 12-4,255,부산,국내,2성,45.0,100개 미만,관광호텔업,분류,35.1576502102436,129.128747823893
호텔1,부산 수영구 광안해변로 203,256,부산,국내,미등급,미분류,200개 이상,미분류,미분류,35.152500377292,129.117373739145
베스트 루이스 해밀턴 호텔 광안점,부산 수영구 광안해변로 276,257,부산,국내,2성,50.0,100개 미만,관광호텔업,분류,35.1556140779393,129.123999595363
더포인트호텔 광안리점,부산 수영구 광안해변로278번길 42,258,부산,국내,2성,45.0,100개 미만,관광호텔업,분류,35.15396298549015,129.1245239353941
호텔 센트럴베이,부산 수영구 광안해변로 189,259,부산,국내,3성,134.0,200개 미만,관광호텔업,분류,35.1514913755992,129.116491110591
브라운도트호텔 수영점,부산 수영구 광안해변로278번길 42,260,부산,국내,미등급,미분류,200개 이상,미분류,미분류,35.15396298549015,129.1245239353941
오션투헤븐,부산 수영구 광안해변로278번길 42,261,부산,국내,2성,26.0,100개 미만,관광호텔업,분류,35.15396298549015,129.1245239353941
제이스테이,서울 송파구 충민로 81-9,262,서울,국내,미등급,미분류,200개 이상,미분류,미분류,37.4799868755823,127.126115532751
벡스코호스텔,부산 수영구 광안해변로284번길 43,263,부산,국내,미등급,미분류,200개 이상,미분류,미분류,35.154029295980216,129.1255724234227
호텔미라주,부산 수영구 남천바다로33번길 15,264,부산,국내,미등급,미분류,200개 이상,미분류,미분류,35.1491940552423,129.114330071994
피코블루,부산 수영구 광안해변로 247-1,265,부산,국내,미등급,미분류,200개 이상,미분류,미분류,35.1550975736315,129.120974210235
오션스테이호텔,부산 수영구 광안해변로278번길 42,266,부산,국내,미등급,14.0,100개 미만,숙박업(생활),분류,35.1539704411162,129.124515022228
라움103,부산 수영구 민락수변로 103,267,부산,국내,미등급,미분류,200개 이상,미분류,미분류,35.1546584044725,129.131821138688
호텔 G&G,제주특별자치도 제주시 남성로 117,268,제주,국내,미등급,미분류,200개 이상,미분류,미분류,33.50901154641355,126.5179551481986
베이하운드호텔,부산 영도구 태종로65번길 11,269,부산,국내,2성,69.0,100개 미만,관광호텔업,분류,35.093129234996425,129.03844130604432
이데아(IDEA)관광호텔,부산 남구 유엔평화로 35,270,부산,국내,1성,52.0,100개 미만,관광호텔업,분류,35.1319010873651,129.092417755834
지앤지(G&G)관광호텔 부산 대연동,부산 남구 유엔평화로4번길 34,271,부산,국내,2성,41.0,100개 미만,관광호텔업,분류,35.13456129623703,129.08996497662187
부산비치관광호텔,부산 서구 등대로 113,272,부산,국내,2성,35.0,100개 미만,관광호텔업,분류,35.0849730804851,129.026228091845
동부산관광호텔,부산 기장군 장안읍 장안로 38,274,부산,국내,2성,61.0,100개 미만,관광호텔업,분류,35.34334012089221,129.2531863503889
하운드호텔 기장일광점,부산 기장군 일광면 해송3로 2,276,부산,국내,2성,55.0,100개 미만,관광호텔업,분류,35.26552780771714,129.23054020395875
브라운도트 호텔 정관,부산 기장군 정관읍 산단1로 98-31,277,부산,국내,1성,41.0,100개 미만,관광호텔업,분류,35.31608054793878,129.181743550099
타이드어웨이풀빌라,부산 기장군 기장읍 기장해안로 26,278,부산,국내,미등급,미분류,200개 이상,미분류,미분류,35.1821626387263,129.208563854485
테라스,서울 서대문구 북아현로 2,279,서울,국내,미등급,미분류,200개 이상,미분류,미분류,37.5577090068771,126.956399778584
브라운도트호텔 덕천점,부산 북구 금곡대로8번길 20,280,부산,국내,2성,47.0,100개 미만,관광호텔업,분류,35.2108236,129.0063034
브라운도트호텔 만덕점,부산 북구 만덕고개길 70,281,부산,국내,미등급,미분류,200개 이상,미분류,미분류,35.211659462085244,129.04673296743255
호텔파라곤,부산 사상구 광장로 46,282,부산,국내,3성,132.0,200개 미만,관광호텔업,분류,35.1619314488622,128.981394542107
부산관광호텔,부산 중구 광복로97번길 23,284,부산,국내,3성,275.0,200개 이상,관광호텔업,분류,35.1004596412998,129.034591650115
호텔노아,부산 중구 자갈치로47번길 3-1,286,부산,국내,미등급,미분류,200개 이상,미분류,미분류,35.09747316552994,129.02929611606737
토요코인부산역Ⅱ,부산 중구 중앙대로 125,287,부산,국내,2성,491.0,200개 이상,관광호텔업,분류,35.10898860543974,129.03664189910577
넘버25호텔 대청점,부산 중구 대청로 107,289,부산,국내,미등급,60.0,100개 미만,관광호텔,분류,35.1031370005739,129.031665870528
반달호텔,부산 중구 해관로 79-1,290,부산,국내,1성,28.0,100개 미만,소형호텔업,분류,35.10604484309833,129.03517155261298
브로시스 호텔,부산 중구 구덕로48번길 4,291,부산,국내,미등급,48.0,100개 미만,관광호텔,분류,35.0985954702571,129.030889759366
브라운도트관광호텔 하단,부산 사하구 낙동남로1423번길 47,292,부산,국내,2성,51.0,100개 미만,관광호텔업,분류,35.10834705036959,128.96591602666555
레이어스호텔,부산 사하구 낙동남로 1395,293,부산,국내,미등급,350.0,200개 이상,관광호텔,분류,35.1065740769819,128.964358652386
브라운도트 사직야구장점,부산 동래구 사직북로13번길 11,294,부산,국내,미등급,미분류,200개 이상,미분류,미분류,35.1966857216727,129.060125002259
호텔일루아,부산 해운대구 달맞이길 97,295,부산,국내,미등급,미분류,200개 이상,미분류,미분류,35.158926462708415,129.17448345580732
리베로호텔 (구 호텔리베라해운대),부산 해운대구 구남로29번길 21,296,부산,국내,2성,91.0,100개 미만,관광호텔업,분류,35.1624316770729,129.161307765751
인더스트리호텔,부산 해운대구 구남로24번길 16,297,부산,국내,미등급,미분류,200개 이상,미분류,미분류,35.1615890522839,129.159340997158
제이비디자인호텔,부산 해운대구 구남로12번길 31,298,부산,국내,2성,80.0,100개 미만,관광호텔업,분류,35.1620168,129.1582857
올라호텔,부산 해운대구 송정광어골로 49,300,부산,국내,2성,42.0,100개 미만,관광호텔업,분류,35.1768652771792,129.196804296611
파라다이스호텔부산,부산 해운대구 해운대해변로 296,301,부산,국내,5성,532.0,200개 이상,관광호텔업,분류,35.1601194355049,129.165237485311
파크하얏트부산,부산 해운대구 마린시티1로 51,302,부산,국내,5성,269.0,200개 이상,관광호텔업,분류,35.1564814586507,129.14178361771
호텔포레,부산 해운대구 해운대해변로265번길 13-20,303,부산,국내,미등급,미분류,200개 이상,미분류,미분류,35.160832,129.160183
토요코인부산해운대2,부산 해운대구 해운대해변로237번길 5,304,부산,국내,2성,510.0,200개 이상,관광호텔업,분류,35.15945590026539,129.15737748691748
선트리호텔,부산 해운대구 달맞이길 209,305,부산,국내,2성,32.0,100개 미만,관광호텔업,분류,35.15947612860655,129.1831996516208
브라운도트호텔(송정점),부산 해운대구 송정광어골로 30,306,부산,국내,미등급,미분류,200개 이상,미분류,미분류,35.178733739893936,129.19732763490856
소사이어티 에스호텔 해운대,부산광역시 해운대구 구남로12번길 37,307,서울,국내,2성,72.0,100개 미만,관광호텔업,분류,35.1615501217584,129.157814350742
호텔롯데 시그니엘 부산,부산 해운대구 달맞이길 30,308,부산,국내,5성,260.0,200개 이상,관광호텔업,분류,35.1606221545821,129.168743895972
캔버스블랙,부산 해운대구 해운대해변로197번길 14,309,부산,국내,미등급,미분류,200개 이상,미분류,미분류,35.15936564127718,129.1529804129582
엣지 993(edge 993),부산 해운대구 달맞이길62번길 78,310,부산,국내,미등급,미분류,200개 이상,미분류,미분류,35.156397079729,129.175129333111
MARINE K POOL VILLA,경남 남해군 창선면 동부대로 2821-20,311,경상,국내,미등급,미분류,200개 이상,미분류,미분류,34.9045556672784,128.023465692909
미포오션사이드호텔,부산 해운대구 달맞이길62번길 28,312,부산,국내,2성,28.0,100개 미만,소형호텔업,분류,35.1587708072056,129.17080339504
광장관광호텔,부산 동구 중앙대로214번길 7,314,부산,국내,2성,56.0,100개 미만,관광호텔업,분류,35.1161765006974,129.041346012344
프라임관광호텔,부산 동구 중앙대로 399,315,부산,국내,미등급,48.0,100개 미만,관광호텔,분류,35.1305645906816,129.050204256519
토요코인 부산역1,부산 동구 중앙대로196번길 12,316,부산,국내,2성,359.0,200개 이상,관광호텔업,분류,35.1141197845825,129.040788008794
(주)아이에이치엠 호텔포레 부산역지점,부산 동구 중앙대로296번길 6,317,부산,국내,미등급,47.0,100개 미만,관광호텔,분류,35.1225481895982,129.04460303487
베스트 인 시티 호텔,부산 동구 고관로 7,318,부산,국내,미등급,미분류,200개 이상,미분류,미분류,35.12031249463046,129.0414755521803
부산숙박닷컴 게스트하우스,부산 동구 초량중로 60,320,부산,국내,미등급,미분류,200개 이상,미분류,미분류,35.1171324139124,129.038522675208
토요코인 부산서면,부산 부산진구 서전로 39,321,부산,국내,2성,301.0,200개 이상,관광호텔업,분류,35.157937965391945,129.06402365217116
이비스 앰배서더 부산 씨티 센터,부산 부산진구 중앙대로 777,322,부산,국내,3성,207.0,200개 이상,관광호텔업,분류,35.1618350986638,129.061888143919
신신호텔,부산 부산진구 중앙대로743번길 24,324,부산,국내,미등급,미분류,200개 이상,미분류,미분류,35.159804,129.059013
오스카호텔,전북 군산시 소룡1길 55,326,전라,국내,미등급,미분류,200개 이상,미분류,미분류,35.97329658297759,126.6766977019628
라이온호텔,부산 부산진구 중앙대로691번가길 14-7,327,부산,국내,2성,73.0,100개 미만,관광호텔업,분류,35.155142936014,129.056150363336
사우스반데코 호텔,부산 부산진구 서면로 6,328,부산,국내,2성,56.0,100개 미만,관광호텔업,분류,35.1510174456998,129.058196190063
티티호텔,부산 부산진구 새싹로 35,329,부산,국내,3성,103.0,200개 미만,관광호텔업,분류,35.1606445036977,129.05647595728
서울YMCA관광호텔,서울 종로구 종로 69,331,서울,국내,미등급,미분류,200개 이상,미분류,미분류,37.5704310325533,126.985547131298
서울 아리랑힐 호텔 동대문,서울 성북구 아리랑로 8,332,서울,국내,미등급,190.0,200개 미만,관광호텔,분류,37.5936583541298,127.016672161833
바티카호텔(VATICAHOTEL),서울 종로구 청계천로 341,333,서울,국내,1성,52.0,100개 미만,관광호텔업,분류,37.57012365689172,127.01552590322476
종로크라운호텔,서울 종로구 삼일대로30길 9,334,서울,국내,미등급,미분류,200개 이상,미분류,미분류,37.5740569303127,126.988186289905
호텔베뉴지,서울 종로구 청계천로 117,335,서울,국내,미등급,미분류,200개 이상,미분류,미분류,37.56859442433215,126.99074079235017
아워홈아벤트리호텔종로점,서울 종로구 우정국로 46,336,서울,국내,미등급,미분류,200개 이상,미분류,미분류,37.5730598395128,126.983297339197
센터마크호텔,서울 종로구 인사동5길 38,337,서울,국내,3성,250.0,200개 이상,관광호텔업,분류,37.5725945997533,126.984199188728
노블관광호텔,전남 여수시 돌산읍 강남해안로 93,338,전라,국내,미등급,미분류,200개 이상,미분류,미분류,34.7188921,127.7483458
호텔이비스앰배서더인사동,서울 종로구 삼일대로30길 31,339,서울,국내,미등급,363.0,200개 이상,관광호텔,분류,37.5744408529329,126.989219311582
JW메리어트동대문스퀘어,서울 종로구 청계천로 279,340,서울,국내,5성,170.0,200개 미만,관광호텔업,분류,37.5703952706854,127.008912711316
메이플레이스호텔 서울동대문,서울 종로구 율곡로 179,341,서울,국내,미등급,미분류,200개 이상,미분류,미분류,37.5761153864099,126.998736183498
고궁호텔,서울 종로구 율곡로 164,342,서울,국내,미등급,미분류,200개 이상,미분류,미분류,37.57572,126.996795
신라스테이광화문,서울 종로구 삼봉로 71,343,서울,국내,3성,338.0,200개 이상,관광호텔업,분류,37.5725531570025,126.981150062819
메이커스호텔,서울 종로구 돈화문로11길 33,344,서울,국내,2성,42.0,100개 미만,관광호텔업,분류,37.572359583619416,126.9895404174086
호텔아트리움,서울 종로구 창경궁로 106,345,서울,국내,3성,139.0,200개 미만,관광호텔업,분류,37.571884757157,126.998124192176
루미아호텔 동대문,서울 종로구 난계로29길 19-11,346,서울,국내,미등급,미분류,200개 이상,미분류,미분류,37.57384729531698,127.02224743125628
호텔쿠레타케소,서울 종로구 인사동길 20-9,347,서울,국내,2성,127.0,200개 미만,관광호텔업,분류,37.5723953898538,126.98717228933047
호텔썬비,서울 종로구 인사동7길 26,348,서울,국내,2성,42.0,100개 미만,관광호텔업,분류,37.57306904835141,126.98476780538267
나인트리프리미어호텔인사동,서울 종로구 인사동길 49,349,서울,국내,미등급,299.0,200개 이상,관광호텔,분류,37.5745525870897,126.983795661777
글루호텔,서울 종로구 율곡로 228,350,서울,국내,2성,53.0,100개 미만,관광호텔업,분류,37.5757981766234,127.003962145282
목시 서울 인사동 호텔,서울 종로구 돈화문로11길 37,351,서울,국내,3성,140.0,200개 미만,관광호텔업,분류,37.5722690152697,126.989335427033
오라카이 인사동 스위츠,서울 종로구 인사동4길 18,352,서울,국내,미등급,213.0,200개 이상,숙박업(생활),분류,37.57310539343618,126.98735328766897
호텔DM(호텔디엠),서울 종로구 난계로29길 73,353,서울,국내,2성,100.0,200개 미만,관광호텔업,분류,37.5733333305911,127.019393495828
오라카이대학로호텔,서울 종로구 율곡로 180,354,서울,국내,4성,232.0,200개 이상,관광호텔업,분류,37.57557118553275,126.99871853290132
ICON,서울 성동구 고산자로 273,355,서울,국내,미등급,미분류,200개 이상,미분류,미분류,37.5641050411473,127.036002346909
호스텔 다다-인사(Hostel DADA-INSA),서울 종로구 삼일대로32가길 33,356,서울,국내,미등급,미분류,200개 이상,미분류,미분류,37.5746487412535,126.989539870839
Hostel Tommy 호스텔 토미,서울 종로구 돈화문로 66,357,서울,국내,미등급,미분류,200개 이상,미분류,미분류,37.57442479910375,126.99119740689396
호스텔코리아,서울 종로구 돈화문로 85,358,서울,국내,미등급,미분류,200개 이상,미분류,미분류,37.5760284958904,126.990259884867
미오하우스,서울 종로구 청계천로 229,359,서울,국내,미등급,미분류,200개 이상,미분류,미분류,37.5701291438154,127.003033641282
24guesthouse동대문마켓점,서울 종로구 종로46길 22,360,서울,국내,미등급,미분류,200개 이상,미분류,미분류,37.57064771644816,127.01018880390392
호스텔 클로이,서울 종로구 종로16길 32-4,361,서울,국내,미등급,미분류,200개 이상,미분류,미분류,37.56872938540832,126.98859010006645
셀립 (종로 순라),서울 종로구 율곡로10길 11,362,서울,국내,미등급,미분류,200개 이상,미분류,미분류,37.5770160607296,126.991215214824
동대문 서울달빛,서울 종로구 종로54길 9-10,363,서울,국내,미등급,미분류,200개 이상,미분류,미분류,37.5719663183792,127.014534668194
호스텔 하루,서울 종로구 청계천로 61,364,서울,국내,미등급,미분류,200개 이상,미분류,미분류,37.56899829322578,126.98432038672225
서울앤호텔 동대문,서울 종로구 종로66가길 21,365,서울,국내,미등급,미분류,200개 이상,미분류,미분류,37.573315066965726,127.02082434402608
메트로호텔,서울 중구 명동9가길 14,366,서울,국내,3성,78.0,100개 미만,관광호텔업,분류,37.56510681023863,126.98371564675584
프레지던트호텔,서울 중구 을지로 16,367,서울,국내,4성,271.0,200개 이상,관광호텔업,분류,37.5658314512941,126.979476558519
서울프린스호텔,서울 중구 퇴계로 130,368,서울,국내,미등급,87.0,100개 미만,관광호텔,분류,37.5606737824061,126.986276545427
뉴서울호텔,서울 중구 세종대로22길 16,369,서울,국내,3성,185.0,200개 미만,관광호텔업,분류,37.5679890102457,126.978160784884
(주)서울렉스호텔,서울 중구 퇴계로10길 23,371,서울,국내,미등급,93.0,100개 미만,관광호텔,분류,37.5586129069075,126.980909110327
호텔 PJ,서울 중구 마른내로 71,372,서울,국내,4성,272.0,200개 이상,관광호텔업,분류,37.5648116074415,126.995700232349
세종호텔,서울 중구 퇴계로 145,373,서울,국내,4성,333.0,200개 이상,관광호텔업,분류,37.5614676538883,126.987957498953
퍼시픽호텔,서울 중구 퇴계로20길 2,374,서울,국내,4성,181.0,200개 미만,관광호텔업,분류,37.5597267346887,126.985441904697
플라자호텔,서울 중구 소공로 119,375,서울,국내,미등급,미분류,200개 이상,미분류,미분류,37.56469234685201,126.97811069981492
호텔롯데,서울 중구 을지로 30,376,서울,국내,미등급,미분류,200개 이상,미분류,미분류,37.56538301228365,126.98101264795298
로얄호텔서울,서울 중구 명동길 61,377,서울,국내,4성,310.0,200개 이상,관광호텔업,분류,37.56425741599385,126.98560265367244
코리아나호텔,서울 중구 세종대로 135,378,서울,국내,4성,337.0,200개 이상,관광호텔업,분류,37.5680552211405,126.976683151578
반얀트리 클럽 앤 스파 서울,서울 중구 장충단로 60,379,서울,국내,5성,50.0,100개 미만,가족호텔업,분류,37.55069827798053,127.00118824486688
베스트웨스턴호텔국도,서울 중구 을지로 164,380,서울,국내,미등급,295.0,200개 이상,관광호텔,분류,37.5661333888558,126.996293609048
이비스 앰배서더 명동,서울 중구 남대문로 78,381,서울,국내,미등급,280.0,200개 이상,관광호텔,분류,37.5641894140338,126.983062193942
프레이저 플레이스 센트럴 서울,서울 중구 통일로 78,382,서울,국내,미등급,미분류,200개 이상,미분류,미분류,37.562605660757,126.969654640904
호텔 스카이파크3,서울 중구 퇴계로 139,383,서울,국내,미등급,136.0,200개 미만,관광호텔,분류,37.5613110898907,126.987374862047
호텔마누,서울 중구 퇴계로 19,384,서울,국내,3성,80.0,100개 미만,관광호텔업,분류,37.5571437019479,126.974921233936
더 그랜드호텔 명동,서울 중구 명동8가길 38,385,서울,국내,미등급,미분류,200개 이상,미분류,미분류,37.56173300612565,126.98718430408869
프레이저플레이스남대문,서울 중구 통일로 78,386,서울,국내,4성,269.0,200개 이상,가족호텔업,분류,37.5625812744423,126.969774286437
써미트호텔,서울 중구 장충단로 198,387,서울,국내,3성,190.0,200개 미만,관광호텔업,분류,37.562248240189,127.006886998465
티마크호텔명동,서울 중구 충무로 15,388,서울,국내,미등급,미분류,200개 이상,미분류,미분류,37.5625858127167,126.992602283548
24게스트하우스동대문,서울 중구 을지로 280-2,389,서울,국내,미등급,미분류,200개 이상,미분류,미분류,37.56542563489518,127.00909129651812
스카이파크호텔 동대문1호점,서울 중구 동호로 335,390,서울,국내,미등급,미분류,200개 이상,미분류,미분류,37.5642222345717,127.002141491078
데이즈 호텔 명동,서울 중구 퇴계로 107,391,서울,국내,미등급,미분류,200개 이상,미분류,미분류,37.5609450899306,126.983588657287
치선 호텔 서울 명동,서울 중구 창경궁로 20,392,서울,국내,미등급,미분류,200개 이상,미분류,미분류,37.5641789975023,126.998569321798
베이튼호텔,서울 중구 동호로 346,393,서울,국내,3성,161.0,200개 미만,관광호텔업,분류,37.565202505267926,127.00277537258408
이비스 버젯 앰배서더 서울 동대문 호텔,서울 중구 퇴계로 334,394,서울,국내,미등급,미분류,200개 이상,미분류,미분류,37.5641138127546,127.008715358028
모닝스카이호텔,서울 중구 퇴계로45길 32-37,395,서울,국내,미등급,미분류,200개 이상,미분류,미분류,37.5640997184529,126.999900395927
스타즈호텔 명동2호점,서울 중구 수표로 16,396,서울,국내,3성,174.0,200개 미만,관광호텔업,분류,37.5625633317281,126.990677816145
오리엔스 호텔 앤 레지던스,서울 중구 삼일대로2길 50,397,서울,국내,미등급,116.0,200개 미만,관광호텔,분류,37.5600893193917,126.991127110956
탕파스 호스텔,서울 중구 퇴계로 159-8,398,서울,국내,미등급,미분류,200개 이상,미분류,미분류,37.5617386756165,126.989899560269
이비스 스타일 앰배서더 서울 명동,서울 중구 삼일대로 302,399,서울,국내,3성,180.0,200개 미만,관광호텔업,분류,37.5616825861454,126.989359120022
스테이비호텔 명동,서울 중구 충무로 23-1,400,서울,국내,3성,97.0,100개 미만,관광호텔업,분류,37.5633282453087,126.992787833994
호텔 도마,서울 중구 퇴계로 216,401,서울,국내,미등급,미분류,200개 이상,미분류,미분류,37.5614326981578,126.99591637858
트레블로지 명동 을지로 호텔,서울 중구 수표로 61,402,서울,국내,3성,224.0,200개 이상,관광호텔업,분류,37.5666103163777,126.989372567883
루미아 호텔,서울 종로구 난계로29길 19-11,403,서울,국내,미등급,미분류,200개 이상,미분류,미분류,37.57384729531698,127.02224743125628
소테츠호텔즈 더 스프라지르 서울 동대문,서울 중구 장충단로 226,404,서울,국내,4성,215.0,200개 이상,관광호텔업,분류,37.5647127725644,127.007745751574
춘천세종관광호텔,강원 춘천시 봉의산길 31,405,강원,국내,3성,63.0,100개 미만,관광호텔업,분류,37.8866746239026,127.731401960228
춘천베어스관광호텔,강원 춘천시 스포츠타운길 376,406,강원,국내,3성,78.0,100개 미만,관광호텔업,분류,37.87084081412554,127.6990671414068
호텔인터불고 ( 원주 ),강원 원주시 동부순환로 200,407,강원,국내,3성,152.0,200개 미만,관광호텔업,분류,37.33255016214475,127.97444624666636
베니키아 문막,강원 원주시 문막읍 왕건로 9,408,강원,국내,미등급,미분류,200개 이상,미분류,미분류,37.3206648096915,127.830972014378
베니키아 호텔 비즈인,강원 원주시 만대로 7-1,409,강원,국내,3성,65.0,100개 미만,관광호텔업,분류,37.3411679647418,127.923828401557
오키드호텔,강원 원주시 봉화로 26,410,강원,국내,3성,85.0,100개 미만,관광호텔업,분류,37.34673935270711,127.92894017103627
씨마크호텔,강원 강릉시 해안로406번길 2,411,강원,국내,5성,150.0,200개 미만,관광호텔업,분류,37.797154768746616,128.91519304815768
경포비치호탤,강원 강릉시 해안로406번길 17,412,강원,국내,미등급,미분류,200개 이상,미분류,미분류,37.7990428820253,128.913698967564
더 홍씨 강릉,강원 강릉시 옥천로65번길 2-6,413,강원,국내,미등급,미분류,200개 이상,미분류,미분류,37.7595864194211,128.89787184646
강릉관광호텔,강원 강릉시 금성로 62,414,강원,국내,미등급,미분류,200개 이상,미분류,미분류,37.751734931990846,128.89466576839297
Hotel Tops10,강원 강릉시 옥계면 헌화로 455-34,415,강원,국내,미등급,미분류,200개 이상,미분류,미분류,37.65466164626685,129.05291758065613
호텔이스트나인,강원 강릉시 교동광장로100번길 8-6,416,강원,국내,2성,54.0,100개 미만,관광호텔업,분류,37.765340256054,128.876549094114
뉴동해관광호텔,강원 동해시 평릉길 1,417,강원,국내,3성,63.0,100개 미만,관광호텔업,분류,37.52660571744787,129.10308279759775
이스턴관광호텔,강원 속초시 청초호반로 319,418,강원,국내,미등급,미분류,200개 이상,미분류,미분류,38.20280535583065,128.59142028766323
동해보양온천컨벤션호텔,강원 동해시 동해대로 6285,419,강원,국내,3성,181.0,200개 미만,관광호텔업,분류,37.59266934805423,129.0871231657754
동해현진관광호텔,강원 동해시 동굴로 125-3,420,강원,국내,3성,82.0,100개 미만,관광호텔업,분류,37.51941953388829,129.11790619460763
태백관광호텔(SORANO HOTEL),강원 태백시 기장밭길 7-1,421,강원,국내,미등급,미분류,200개 이상,미분류,미분류,37.1992308010484,128.96196130936
켄싱턴호텔 설악,강원 속초시 설악산로 998,422,강원,국내,4성,108.0,200개 미만,관광호텔업,분류,38.172633688046,128.500248929075
마레몬스관광호텔,강원 속초시 동해대로 3705,423,강원,국내,4성,148.0,200개 미만,관광호텔업,분류,38.1669328653054,128.60650914225022
베니키아 호텔 산과바다 대포항,강원 속초시 동해대로 3691,424,강원,국내,2성,63.0,100개 미만,관광호텔업,분류,38.16570330601572,128.60808411007343
더클래스 300,강원 속초시 동해대로 3915,425,강원,국내,3성,306.0,200개 이상,관광호텔업,분류,38.1843543688501,128.600405586825
롯데리조트 속초,강원 속초시 대포항길 186,426,강원,국내,4성,392.0,200개 이상,관광호텔업,분류,38.1760108,128.6072118
쏠비치 호텔 삼척,강원 삼척시 수로부인길 453,427,강원,국내,4성,217.0,200개 이상,관광호텔업,분류,37.47142592653423,129.16413007359557
소노문 비발디파크,강원 홍천군 서면 한치골길 262,428,강원,국내,미등급,미분류,200개 이상,미분류,미분류,37.645612126186336,127.68031492468263
용평리조트 드래곤밸리호텔,강원 평창군 대관령면 올림픽로 715,429,강원,국내,4성,195.0,200개 미만,관광호텔업,분류,37.6457264911261,128.680639628193
켄싱턴 플로라호텔,강원 평창군 진부면 진고개로 231,430,강원,국내,미등급,306.0,200개 이상,관광호텔,분류,37.6888241058484,128.59761535621
인터컨티넨탈알펜시아평창리조트,강원 평창군 대관령면 솔봉로 325,431,강원,국내,5성,238.0,200개 이상,관광호텔업,분류,37.65823078440778,128.66954486909506
휘닉스 호텔,강원 횡성군 우천면 서동로 116,433,강원,국내,미등급,미분류,200개 이상,미분류,미분류,37.44349207285319,128.06732385218436
하이원 그랜드호텔카지노,강원 정선군 사북읍 하이원길 265,434,강원,국내,5성,727.0,200개 이상,관광호텔업,분류,37.212083974165886,128.82172844491103
하이원 팰리스호텔,강원 정선군 고한읍 고한7길 399,435,강원,국내,4성,197.0,200개 미만,관광호텔업,분류,37.1733290872368,128.84307791239175
이코노미호텔,강원 정선군 남면 무릉4로 2,436,강원,국내,미등급,미분류,200개 이상,미분류,미분류,37.245615342685234,128.776748219689
한탄리버스파호텔,강원 철원군 동송읍 태봉로 1799-22,437,강원,국내,3성,68.0,100개 미만,관광호텔업,분류,38.18628413906104,127.29013842653023
양구KCP호텔,강원 양구군 양구읍 파로호로 993-19,438,강원,국내,미등급,미분류,200개 이상,미분류,미분류,38.11378711088992,127.9806733083706
인제스피디움호텔,강원 인제군 기린면 상하답로 130,439,강원,국내,4성,134.0,200개 미만,관광호텔업,분류,38.00285208225072,128.29535864950344
쏠비치 호텔 양양,강원 양양군 손양면 선사유적로 678,440,강원,국내,4성,214.0,200개 이상,관광호텔업,분류,38.0870362634915,128.665120552828
베니키아호텔 산과바다 양양,강원 속초시 동해대로 3691,441,강원,국내,미등급,미분류,200개 이상,미분류,미분류,38.16570330601572,128.60808411007343
호텔공지천,강원 춘천시 수변공원길 11,442,강원,국내,미등급,미분류,200개 이상,미분류,미분류,37.87263726162705,127.70721497471828
주문진리조트,강원 강릉시 주문진읍 해안로 2070,443,강원,국내,미등급,미분류,200개 이상,미분류,미분류,37.90879624694732,128.820005527777
썬크루즈호텔&리조트,강원 강릉시 강동면 헌화로 950-39,444,강원,국내,미등급,미분류,200개 이상,미분류,미분류,37.683446294380815,129.04392893920098
망상해오름가족호텔,강원 동해시 동해대로 6188,445,강원,국내,미등급,미분류,200개 이상,미분류,미분류,37.58829165584297,129.09685637218718
베니키아호텔 산과바다 속초,강원 속초시 동해대로 3707,446,강원,국내,미등급,60.0,100개 미만,휴양콘도미니엄업,분류,38.1676863,128.6073346
더케이설악산가족호텔,강원 속초시 설악산로 470-7,447,강원,국내,미등급,미분류,200개 이상,미분류,미분류,38.1664078350369,128.55484176882
호텔굿모닝,강원 속초시 해오름로 204,448,강원,국내,미등급,미분류,200개 이상,미분류,미분류,38.1905988868855,128.600262844803
화양강호텔,강원 홍천군 홍천읍 소옥개로 142,449,강원,국내,미등급,미분류,200개 이상,미분류,미분류,37.699690373110215,127.90708776091236
세이지우드 호텔 홍천,강원 홍천군 두촌면 광석로 898-160,450,강원,국내,미등급,미분류,200개 이상,미분류,미분류,37.8859652979579,128.118671192935
현대엘리엇호텔앤드리조트,강원 평창군 대관령면 경강로 4887-5,451,강원,국내,미등급,미분류,200개 이상,미분류,미분류,37.68661364685641,128.67077620840593
골든메이플관광호텔,강원 정선군 남면 무릉1로 85,452,강원,국내,미등급,미분류,200개 이상,미분류,미분류,37.24621504414235,128.77742945571217
엘스호텔,강원 정선군 사북읍 사북1길 21,453,강원,국내,미등급,미분류,200개 이상,미분류,미분류,37.2275267032822,128.81192623037668
레이크오션 가족호텔,강원 고성군 토성면 잼버리동로 583-20,455,강원,국내,미등급,미분류,200개 이상,미분류,미분류,38.2388766369493,128.568134602852
오색그린야드호텔,강원 양양군 서면 대청봉길 34,456,강원,국내,미등급,미분류,200개 이상,미분류,미분류,38.080221930231644,128.44750990473543
에스파스호스텔,강원 춘천시 닥나무길 12,457,강원,국내,미등급,미분류,200개 이상,미분류,미분류,37.86976603880344,127.72585912206274
이스트하우스 호스텔,강원 동해시 동해대로 6267,458,강원,국내,미등급,미분류,200개 이상,미분류,미분류,37.5915016504642,129.088967539116
하슬라아트월드,강원 강릉시 강동면 율곡로 1441,459,강원,국내,2성,23.0,100개 미만,소형호텔업,분류,37.7054583826871,129.007843904557
브루클린호텔,강원 속초시 청초호반로 107,460,강원,국내,미등급,미분류,200개 이상,미분류,미분류,38.190166245804406,128.5826064930825
제주KAL호텔,제주특별자치도 제주시 중앙로 151,461,제주,국내,미등급,미분류,200개 이상,미분류,미분류,33.5058724300764,126.526900898819
메종글래드제주 ,제주특별자치도 제주시 노연로 80,462,제주,국내,5성,513.0,200개 이상,관광호텔,분류,33.4848652881254,126.488557453949
제주로얄호텔,제주특별자치도 제주시 신대로12길 45,463,제주,국내,미등급,미분류,200개 이상,미분류,미분류,33.4885594993703,126.491697693003
제주마리나관광호텔,제주특별자치도 제주시 신대로 45,464,제주,국내,미등급,미분류,200개 이상,미분류,미분류,33.4933029129245,126.497256911273
제주팔레스호텔,제주특별자치도 제주시 탑동로 9,465,제주,국내,3성,94.0,100개 미만,관광호텔_제주,분류,33.5168631027261,126.52368088991
제주서울관광호텔,제주 제주시 탑동로 5,466,제주,국내,미등급,미분류,200개 이상,미분류,미분류,33.516777,126.524236
펄호텔 제주(구 제주펄관광호텔),제주 제주시 신대로20길 49,467,제주,국내,미등급,미분류,200개 이상,미분류,미분류,33.483469688090445,126.49096027679064
제주오리엔탈호텔,제주특별자치도 제주시 탑동로 47,468,제주,국내,5성,321.0,200개 이상,미분류,미분류,33.51758741349701,126.51979768971532
삼해인관광호텔,제주특별자치도 제주시 도령로 108,469,제주,국내,미등급,미분류,200개 이상,미분류,미분류,33.49128277619733,126.48939950017422
호텔 스카이파크,인천 연수구 컨벤시아대로 233,470,경기,국내,미등급,241.0,200개 이상,관광호텔,분류,37.3845488,126.6387046
라자관광호텔,제주특별자치도 제주시 연동6길 33,471,제주,국내,미등급,미분류,200개 이상,미분류,미분류,33.4828733726678,126.489338024882
제주퍼시픽호텔,제주특별자치도 제주시 서사로 20,472,제주,국내,4성,177.0,200개 미만,미분류,미분류,33.51063010149425,126.51916667695303
뉴 아일랜드 관광호텔,제주특별자치도 제주시 연동6길 17,473,제주,국내,미등급,미분류,200개 이상,미분류,미분류,33.4842153534391,126.489437745145
스타즈호텔 제주 로베로,제주특별자치도 제주시 관덕로 26,474,제주,국내,미등급,미분류,200개 이상,미분류,미분류,33.51285696795115,126.5219463059448
제주선샤인호텔,제주특별자치도 제주시 조천읍 신북로 481-9,475,제주,국내,미등급,미분류,200개 이상,미분류,미분류,33.5442561878724,126.661800373194
뉴코리아호텔,제주특별자치도 제주시 은남길 37,476,제주,국내,미등급,미분류,200개 이상,미분류,미분류,33.486302,126.495972
메이더호텔,제주특별자치도 제주시 구좌읍 일주동로 1626,477,제주,국내,3성,54.0,100개 미만,관광호텔_제주,분류,33.5314441,126.8206181
코쿤애월,제주특별자치도 제주시 애월읍 중엄3길 50,478,제주,국내,미등급,미분류,200개 이상,미분류,미분류,33.4779832726449,126.37164052306
라마다프라자제주호텔,제주특별자치도 제주시 탑동로 66,479,제주,국내,5성,400.0,200개 이상,관광호텔_제주,분류,33.5185862147771,126.517112737559
오션그랜드호텔,제주특별자치도 제주시 조천읍 조함해안로 490,480,제주,국내,3성,74.0,100개 미만,관광호텔_제주,분류,33.5425313989237,126.665168285618
뉴맨하탄관광호텔,제주특별자치도 제주시 도령로 66,481,제주,국내,미등급,미분류,200개 이상,미분류,미분류,33.4892736214602,126.485594664913
호텔라온제주,제주특별자치도 제주시 한림읍 금능남로 127,482,제주,국내,3성,51.0,100개 미만,관광호텔_제주,분류,33.378515760576164,126.24109554600471
파크사이드관광호텔,제주특별자치도 제주시 도령로 126,483,제주,국내,미등급,미분류,200개 이상,미분류,미분류,33.492405577100804,126.49079178072176
애플관광호텔(구. 하이트 관광호텔),제주 제주시 동광로 45,484,제주,국내,미등급,미분류,200개 이상,미분류,미분류,33.50300358877095,126.53356519713157
엠버시티호텔(구.아이비호텔),제주 제주시 노연로 13,485,제주,국내,미등급,36.0,100개 미만,관광호텔,분류,33.4863189788307,126.481669531938
퓨어스테이호텔,제주특별자치도 제주시 신대로 68,486,제주,국내,미등급,미분류,200개 이상,미분류,미분류,33.4913698814425,126.496364207069
올레관광호텔,제주특별자치도 제주시 서광로 254,487,제주,국내,미등급,미분류,200개 이상,미분류,미분류,33.4995559481082,126.523625039993
로긴호텔(구.호텔오슬로),제주 제주시 서해안로 442-11,488,제주,국내,2성,31.0,100개 미만,관광호텔_제주,분류,33.51699010973715,126.48859947847065
엠버호텔,제주특별자치도 제주시 삼무로 12,489,제주,국내,미등급,72.0,100개 미만,관광호텔,분류,33.4897655629191,126.487822886826
해호텔,경기 양주시 장흥면 권율로 83-12,490,경기,국내,미등급,미분류,200개 이상,미분류,미분류,37.722928571045415,126.94691243787722
롯데시티호텔 제주,제주특별자치도 제주시 도령로 83,491,제주,국내,4성,262.0,200개 이상,관광호텔_제주,분류,33.4906417333233,126.486603641414
엠버호텔 센트럴(구.이비사호텔),제주 제주시 노연로 24,492,제주,국내,미등급,미분류,200개 이상,미분류,미분류,33.4858353488921,126.48265821892
제주미주호텔,제주특별자치도 제주시 신대로 60,493,제주,국내,미등급,미분류,200개 이상,미분류,미분류,33.4921165393916,126.496398622314
호텔 컬리넌,제주특별자치도 제주시 사장1길 26,494,제주,국내,2성,59.0,100개 미만,관광호텔_제주,분류,33.485319458299784,126.49286682893872
골든파크관광호텔,제주 제주시 서광로2길 9,495,제주,국내,1성,38.0,100개 미만,관광호텔_제주,분류,33.4992368632056,126.51297729952
씨앤관광호텔,제주특별자치도 제주시 일주서로 7490,496,제주,국내,미등급,미분류,200개 이상,미분류,미분류,33.4935975426802,126.447050185009
팜파스호텔 제주(구. 제주팜파스호텔/구.씨엘블루호텔),제주 제주시 서해안로 368-3,497,제주,국내,미등급,미분류,200개 이상,미분류,미분류,33.5115566087566,126.484989276359
루스톤빌라앤호텔,제주 제주시 애월읍 애월해안로 406,498,제주,국내,미등급,미분류,200개 이상,미분류,미분류,33.472139,126.35205
그라벨호텔,제주특별자치도 제주시 일주서로 7316,499,제주,국내,4성,141.0,200개 미만,관광호텔_제주,분류,33.4924357447142,126.428703258364
HOTEL LEO,제주특별자치도 제주시 삼무로 14,500,제주,국내,미등급,미분류,200개 이상,미분류,미분류,33.48971285295639,126.48824553533515
아이진호텔,제주 제주시 신대로22길 4,501,제주,국내,3성,75.0,100개 미만,관광호텔_제주,분류,33.4824643968782,126.494812612576
아스타호텔,제주특별자치도 제주시 서사로 129,502,제주,국내,4성,130.0,200개 미만,관광호텔_제주,분류,33.5008542977415,126.52025158907
심스호텔(구.다이아나호텔),제주 제주시 임항로 249,503,제주,국내,미등급,미분류,200개 이상,미분류,미분류,33.517812018450904,126.53953494649248
케이 관광호텔,제주특별자치도 제주시 연동3길 10,504,제주,국내,미등급,미분류,200개 이상,미분류,미분류,33.48904072486099,126.48792022894293
유니호텔,제주특별자치도 제주시 애월읍 애월해안로 656,505,제주,국내,미등급,미분류,200개 이상,미분류,미분류,33.47941682257472,126.37342690164174
사하라,충북 청주시 흥덕구 강서로 83-8,506,충청,국내,미등급,미분류,200개 이상,미분류,미분류,36.6238676924979,127.425720156522
신라스테이제주,제주특별자치도 제주시 노연로 100,507,제주,국내,미등급,301.0,200개 이상,관광호텔,분류,33.4855442721997,126.490899184243
제니아관광호텔,제주 제주시 은남1길 25,508,제주,국내,미등급,미분류,200개 이상,미분류,미분류,33.4891133837909,126.493093274997
제주갤럭시호텔,제주특별자치도 제주시 남성로 33,509,제주,국내,3성,85.0,100개 미만,관광호텔_제주,분류,33.50315717594237,126.51256791621006
베니키아호텔제주(구. 뉴베니키아호텔제주),제주 제주시 애월읍 애월해안로 554-6,510,제주,국내,미등급,88.0,100개 미만,관광호텔,분류,33.4777415575671,126.36240759002
해마호텔,제주특별자치도 제주시 삼무로 28,511,제주,국내,3성,89.0,100개 미만,관광호텔_제주,분류,33.48970471688793,126.48955187253289
에스호텔,제주특별자치도 제주시 오일장중길 26,512,제주,국내,미등급,미분류,200개 이상,미분류,미분류,33.49541204606956,126.4713356742536
블랙샌즈관광호텔,제주 제주시 선사로 8,513,제주,국내,3성,78.0,100개 미만,관광호텔_제주,분류,33.5219204519901,126.587338704286
호텔더원,제주특별자치도 제주시 사장3길 33,514,제주,국내,4성,180.0,200개 미만,관광호텔_제주,분류,33.4826849687816,126.491406107553
하버관광호텔,제주 제주시 임항로 260,515,제주,국내,2성,30.0,100개 미만,관광호텔_제주,분류,33.5176900942666,126.538267628146
탐라스테이,제주특별자치도 제주시 애월읍 애월해안로 881,516,제주,국내,미등급,116.0,200개 미만,관광호텔,분류,33.4869588776622,126.39123062109
스카이힐비즈니스 관광호텔,제주 제주시 서광로24길 1,517,제주,국내,미등급,미분류,200개 이상,미분류,미분류,33.49943653001361,126.5232845566198
슬림관광호텔,제주 제주시 서광로 292-1,518,제주,국내,미등급,미분류,200개 이상,미분류,미분류,33.5001991798798,126.5277324213
플로라제주 제이드림호텔,제주특별자치도 제주시 은남1길 40,519,제주,국내,미등급,미분류,200개 이상,미분류,미분류,33.4893667061517,126.491546638773
어반아일랜드호텔,제주특별자치도 제주시 삼무로 76,520,제주,국내,3성,70.0,100개 미만,관광호텔_제주,분류,33.4895690776308,126.494734132205
더스테이센추리호텔,제주특별자치도 제주시 애월읍 일주서로 7113,521,제주,국내,미등급,미분류,200개 이상,미분류,미분류,33.48484028263278,126.40893305644538
오드리 인,제주특별자치도 제주시 서해안로 100,522,제주,국내,미등급,미분류,200개 이상,미분류,미분류,33.503053617025486,126.46018407392756
스위트캐슬(구.Best One 관광호텔),제주 제주시 조천읍 신북로 443,523,제주,국내,미등급,90.0,100개 미만,관광호텔,분류,33.54420728566155,126.65690413882368
호텔난타,제주특별자치도 제주시 선돌목동길 56-26,524,제주,국내,4성,204.0,200개 이상,관광호텔_제주,분류,33.4456543573036,126.547596144209
호텔샬롬,제주특별자치도 제주시 동광로 34,525,제주,국내,미등급,미분류,200개 이상,미분류,미분류,33.501990094718515,126.53258055165524
제주레슬리호텔,제주특별자치도 제주시 광평길 3,526,제주,국내,미등급,미분류,200개 이상,미분류,미분류,33.4811539117732,126.470614290392
제주노블레스 관광호텔,제주특별자치도 제주시 월성로4길 19,527,제주,국내,미등급,미분류,200개 이상,미분류,미분류,33.50117264441202,126.50345316906514
호텔 시리우스,제주특별자치도 제주시 도령로 133,528,제주,국내,4성,280.0,200개 이상,관광호텔_제주,분류,33.4934418614594,126.491053978301
다인오세아노호텔,제주특별자치도 제주시 애월읍 애월해안로 394,529,제주,국내,4성,83.0,100개 미만,관광호텔_제주,분류,33.4725088190749,126.350335761566
시티홀관광호텔제주,제주 제주시 동광로4길 9-4,530,제주,국내,미등급,미분류,200개 이상,미분류,미분류,33.5007697647722,126.53197692772844
그랜드하얏트 제주,제주특별자치도 제주시 노연로 12,531,제주,국내,5성,750.0,200개 이상,관광호텔_제주,분류,33.48524230014456,126.48141147321884
꼬뜨도르가족호텔,제주특별자치도 제주시 구좌읍 일주동로 1724,532,제주,국내,미등급,미분류,200개 이상,미분류,미분류,33.55197243856026,126.71668014733764
그림리조트,제주특별자치도 제주시 서해안로 620-1,533,제주,국내,미등급,미분류,200개 이상,미분류,미분류,33.5163180963028,126.50358946394093
다인리조트,제주특별자치도 제주시 애월읍 애월해안로 400-9,534,제주,국내,미등급,33.0,100개 미만,관광호텔,분류,33.4714908987742,126.351156220975
올레리조트,제주특별자치도 제주시 애월읍 부룡수길 33,535,제주,국내,미등급,53.0,100개 미만,관광호텔,분류,33.4753868045328,126.356269452893
베스트웨스턴 제주호텔,제주특별자치도 제주시 도령로 27,536,제주,국내,4성,346.0,200개 이상,관광호텔_제주,분류,33.4878001190012,126.481864825168
아모렉스리조트,제주특별자치도 제주시 서해안로 216,537,제주,국내,3성,173.0,200개 미만,관광호텔_제주,분류,33.50746206273323,126.47034545883784
제주나인리조트,제주특별자치도 제주시 해안마을북길 14-5,538,제주,국내,2성,30.0,100개 미만,가족호텔_제주,분류,33.46498618460455,126.4536991111569
하바나호텔앤리조트 (구.하바나리조트),제주 제주시 구좌읍 해맞이해안로 1590-6,539,제주,국내,미등급,미분류,200개 이상,미분류,미분류,33.528079350151145,126.87376814803996
부띠끄호텔 빌라드애월,제주특별자치도 제주시 애월읍 애월해안로 516-7,540,제주,국내,미등급,미분류,200개 이상,미분류,미분류,33.4771155535653,126.359236787549
로긴리조트,제주특별자치도 제주시 서해안로 442-11,541,제주,국내,2성,31.0,100개 미만,가족호텔_제주,분류,33.51699010973715,126.48859947847065
블루하와이리조트,제주특별자치도 제주시 한림읍 한림로 77,542,제주,국내,3성,86.0,100개 미만,관광호텔_제주,분류,33.3813942527929,126.218099616049
제주에어포트호텔,제주특별자치도 제주시 도령로 102,543,제주,국내,미등급,미분류,200개 이상,미분류,미분류,33.49096180696441,126.48874284969284
오션패밀리호텔 (구 오션패밀리호텔 스토리),제주 제주시 일주서로 7531,544,제주,국내,1성,30.0,100개 미만,가족호텔_제주,분류,33.49527979402346,126.4508768178008
하이제주호텔,제주특별자치도 제주시 한림읍 일주서로 5125,545,제주,국내,2성,96.0,100개 미만,가족호텔_제주,분류,33.3917672441234,126.253418976264
호텔샹그릴라(구.호텔펄리),제주 제주시 해안마을복길 14-6,546,제주,국내,미등급,미분류,200개 이상,미분류,미분류,33.46447,126.454837
에코그린리조트(구.에코패밀리호텔),제주 제주시 한림읍 귀덕6길 94,547,제주,국내,미등급,90.0,100개 미만,숙박업(생활),분류,33.43528831814656,126.29147883038122
이화호텔,제주특별자치도 제주시 도령로 155,548,제주,국내,미등급,미분류,200개 이상,미분류,미분류,33.49474105317532,126.49219638720838
마레보가족호텔,제주 제주시 애월읍 신엄안3길 135,549,제주,국내,3성,95.0,100개 미만,관광호텔_제주,분류,33.4706533976688,126.354450892
더제주리조트,제주특별자치도 제주시 한림읍 협재로 226,550,제주,국내,미등급,미분류,200개 이상,미분류,미분류,33.3783092524525,126.251182712647
수앤수리조트(구.수앤수가족호텔),제주 제주시 애월읍 부룡수길 60,551,제주,국내,2성,40.0,100개 미만,가족호텔_제주,분류,33.4741623128917,126.358695119885
리치호텔,제주특별자치도 제주시 애월읍 고내로13길 100,552,제주,국내,미등급,미분류,200개 이상,미분류,미분류,33.4720743292895,126.34894090405
도두봉호텔(구. 해든호텔),제주 제주시 서해안로 204,553,제주,국내,미등급,미분류,200개 이상,미분류,미분류,33.5065576171875,126.469888190471
호텔펄리플러스,제주특별자치도 제주시 도두봉2길 2,554,제주,국내,미등급,미분류,200개 이상,미분류,미분류,33.505421967811394,126.46997044934496
블루하와이호텔,제주특별자치도 제주시 한림읍 한림로 75,555,제주,국내,3성,99.0,100개 미만,관광호텔_제주,분류,33.380654,126.218453
호텔카리스,인천 계양구 계양대로 28,556,경기,국내,3성,142.0,200개 미만,관광호텔업,분류,37.52633452859022,126.72290121841728
아마레관광호텔,인천 계양구 장제로730번길 14,557,경기,국내,1성,67.0,100개 미만,관광호텔업,분류,37.5325822842141,126.735576767003
로얄호텔,인천 남동구 백범로 367,558,경기,국내,미등급,미분류,200개 이상,미분류,미분류,0.0,0.0
파이호텔,인천 남동구 석촌로46번길 47,559,경기,국내,1성,65.0,100개 미만,관광호텔업,분류,37.46424635632153,126.7116122170511
폴로(POLO)관광호텔,인천 남동구 앵고개로934번길 30,560,경기,국내,2성,50.0,100개 미만,관광호텔업,분류,37.40094775634,126.735235853286
SJ Design 관광호텔,인천 남동구 소래역로 26-16,561,경기,국내,1성,53.0,100개 미만,관광호텔업,분류,37.39954841628651,126.73641985093504
센트럴프라자호텔,인천 남동구 예술로204번길 15,562,경기,국내,2성,118.0,200개 미만,관광호텔업,분류,37.4524103493559,126.702386835819
골든호텔,제주특별자치도 서귀포시 성산읍 일출로 31,563,제주,국내,미등급,미분류,200개 이상,미분류,미분류,33.448005891861,126.91625982446794
호텔 라트리,인천 남동구 인하로507번길 50,564,경기,국내,미등급,미분류,200개 이상,미분류,미분류,37.4455229029008,126.70341423344
호텔 더 디자이너스 인천,인천 남동구 남동대로765번길 8,565,경기,국내,2성,103.0,200개 미만,관광호텔업,분류,37.4510246443812,126.707094898997
소래호텔카카오,인천 남동구 앵고개로948번길 48,566,경기,국내,미등급,미분류,200개 이상,미분류,미분류,37.40067993606952,126.7363481239741
엠플레이스호텔,인천 남동구 인하로507번길 56,567,경기,국내,2성,66.0,100개 미만,관광호텔업,분류,37.44572559156028,126.70339874236208
인천 호텔 반월(구 아시아드),인천광역시 남동구 선수촌공원로17번길 6 (구월동),568,경기,국내,2성,76.0,100개 미만,관광호텔업,분류,37.4583812,126.7149354
인천 파크마린 호텔,인천 남동구 소래역로 44,569,경기,국내,미등급,미분류,200개 이상,미분류,미분류,37.4010179136864,126.73477932728892
인천 호텔 진,인천 남동구 남동대로777번길 36,570,경기,국내,1성,64.0,100개 미만,관광호텔업,분류,37.452189029890526,126.70575675557052
호텔베이204,인천 남동구 인하로507번길 21-1,571,경기,국내,2성,91.0,100개 미만,관광호텔업,분류,37.4441673257721,126.702479946634
썬플라워 관광호텔,인천 미추홀구 주안중로 22-1,572,경기,국내,미등급,미분류,200개 이상,미분류,미분류,37.4604372217964,126.682901504122
토요코인인천부평,인천 부평구 광장로 10,573,경기,국내,2성,512.0,200개 이상,관광호텔업,분류,37.49044566387448,126.72207045164754
인천 SG관광호텔,인천 서구 탁옥로51번길 13-9,574,경기,국내,2성,67.0,100개 미만,관광호텔업,분류,37.54522,126.674317
포시즌관광호텔,인천 서구 탁옥로33번길 15,575,경기,국내,미등급,미분류,200개 이상,미분류,미분류,37.54545474010801,126.67326732661851
3s 부티크 호텔,인천 서구 원당대로 874,576,경기,국내,2성,93.0,100개 미만,관광호텔업,분류,37.5931553132946,126.698417882339
인천 호텔소프라,인천 서구 서곶로301번길 21,577,경기,국내,3성,148.0,200개 미만,관광호텔업,분류,37.5443872837444,126.674326600802
인천 펜타스타 호텔,인천 서구 오류로14번길 23,578,경기,국내,미등급,미분류,200개 이상,미분류,미분류,37.59547554195124,126.63179894023529
호텔 원티드,인천 서구 북항로32번길 20,579,경기,국내,3성,91.0,100개 미만,관광호텔업,분류,37.50831324630061,126.64527828266776
인천 크리스탈 호텔,인천 서구 오류로14번길 22,580,경기,국내,미등급,미분류,200개 이상,미분류,미분류,37.59516910144445,126.63147660411164
송도 브라운도트,인천 연수구 능허대로 227-7,582,경기,국내,미등급,미분류,200개 이상,미분류,미분류,37.41618022270058,126.65146646183015
호텔498,인천 연수구 용담로85번길 24,583,경기,국내,2성,71.0,100개 미만,관광호텔업,분류,37.4173902654094,126.676174158206
딘 관광호텔,인천 중구 연안부두로43번길 12,584,경기,국내,미등급,미분류,200개 이상,미분류,미분류,37.4538114878488,126.602527433169
베스트웨스턴 하버파크,인천 중구 제물량로 217,585,경기,국내,4성,213.0,200개 이상,관광호텔업,분류,37.47214731657351,126.61960671408109
시크릿관광호텔,인천 중구 월미로233번길 11,586,경기,국내,2성,72.0,100개 미만,관광호텔업,분류,37.4745721310103,126.600557832663
G관광호텔,인천 중구 월미로248번길 1,587,경기,국내,미등급,미분류,200개 이상,미분류,미분류,37.47387526595769,126.59858204421636
베니키아 호텔 바다의 별,인천 중구 월미로242번길 7-2,588,경기,국내,미등급,미분류,200개 이상,미분류,미분류,37.4743405773419,126.598432590298
W호텔 인천,인천 중구 월미로 211,589,경기,국내,2성,40.0,100개 미만,관광호텔업,분류,37.47706282561181,126.6001194919369
베니키아 월미도 더 블리스 호텔,인천 중구 월미로 266,590,경기,국내,2성,88.0,100개 미만,관광호텔업,분류,37.47290431337153,126.59735501319987
인천 세븐호텔,인천 중구 신포로23번길 3,591,경기,국내,미등급,미분류,200개 이상,미분류,미분류,37.4710671954541,126.624452790624
인천 다이아몬드호텔,제주특별자치도 제주시 신대로12길 42,592,제주,국내,미등급,미분류,200개 이상,미분류,미분류,33.48892323907448,126.49223464967028
세븐호텔,충남 천안시 서북구 성정공원7길 29,593,충청,국내,미등급,미분류,200개 이상,미분류,미분류,36.82923519667908,127.14451797285987
해월관광호텔,인천 중구 월미로260번길 8,594,경기,국내,미등급,미분류,200개 이상,미분류,미분류,37.47351662620525,126.59804019671212
블루마린호텔,인천 중구 월미로234번길 12,595,경기,국내,2성,51.0,100개 미만,관광호텔업,분류,37.475560128037976,126.59804734070674
호텔 그랜드 스위트,인천 중구 월미로248번길 2,596,경기,국내,1성,66.0,100개 미만,관광호텔업,분류,37.47409623841394,126.59864869230412
월미도 관광호텔,인천 중구 월미로 274,597,경기,국내,1성,46.0,100개 미만,관광호텔업,분류,37.4724321242381,126.596808136116
스텔라마리스,인천 중구 반달로3번길 16,598,경기,국내,미등급,미분류,200개 이상,미분류,미분류,37.4769747484092,126.600451210035
인천 위너스 호텔,인천 중구 왕산로 40,599,경기,국내,미등급,미분류,200개 이상,미분류,미분류,37.4612810806889,126.368687466973
인천 파크우드,인천 중구 마시란로 34,600,경기,국내,2성,52.0,100개 미만,관광호텔업,분류,37.42621913392481,126.42179191565864
인천 씨월드호텔,인천 중구 용유서로479번길 50-7,601,경기,국내,미등급,미분류,200개 이상,미분류,미분류,37.464419941819614,126.3693223247547
인천 호텔오션뷰,인천 중구 선녀바위로55번길 13,602,경기,국내,미등급,미분류,200개 이상,미분류,미분류,37.44197784238449,126.37867507349254
오션사이드 관광호텔,인천 중구 마시란로 40,603,경기,국내,미등급,미분류,200개 이상,미분류,미분류,37.4265388786151,126.42121666064016
레이관광호텔,인천 중구 을왕로58번길 7,604,경기,국내,1성,30.0,100개 미만,관광호텔업,분류,37.4495540254681,126.371727393852
인천프린스관광호텔,인천 중구 용유서로172번길 22,605,경기,국내,미등급,31.0,100개 미만,관광호텔,분류,37.4495297095384,126.389139673708
호텔 ORA,강원 춘천시 스포츠타운길 376,606,강원,국내,미등급,미분류,200개 이상,미분류,미분류,37.87084081412554,127.6990671414068
더프린스 호텔,인천 중구 을왕로58번길 5,607,경기,국내,2성,41.0,100개 미만,관광호텔업,분류,37.449412167886045,126.37155036092923
쉐라톤 그랜드 인천,인천 연수구 컨벤시아대로 153,608,경기,국내,5성,321.0,200개 이상,관광호텔업,분류,37.39035492384448,126.64528376126022
오라카이송도파크호텔,인천 연수구 테크노파크로 151,609,경기,국내,4성,275.0,200개 이상,관광호텔업,분류,37.3881239760938,126.640797766722
호텔시애틀 인천공항,인천 중구 신도시남로150번길 8,610,경기,국내,2성,43.0,100개 미만,관광호텔업,분류,37.4944462631105,126.491484426877
그랜드하얏트 인천,인천 중구 영종해안남로321번길 208,611,경기,국내,5성,1024.0,200개 이상,관광호텔업,분류,37.44060223991513,126.45740694661126
베스트웨스턴 인천에어포트,인천 중구 공항로424번길 48-27,612,경기,국내,4성,305.0,200개 이상,관광호텔업,분류,37.43841396537695,126.4596284195297
호텔 준,인천 중구 신도시남로150번길 18,613,경기,국내,2성,48.0,100개 미만,관광호텔업,분류,37.4944147513408,126.492558448563
제우메스관광호텔,인천 중구 흰바위로59번길 31,614,경기,국내,2성,60.0,100개 미만,관광호텔업,분류,37.4943549465925,126.492878190972
인천공항호텔,인천 중구 신도시남로149번길 11,615,경기,국내,미등급,미분류,200개 이상,미분류,미분류,37.49448821047079,126.48909475912173
오크우드프리미어인천호텔,인천 연수구 컨벤시아대로 165,616,경기,국내,5성,423.0,200개 이상,가족호텔업,분류,37.389276842196,126.644229627529
송도센트럴파크호텔,인천 연수구 테크노파크로 193,617,경기,국내,미등급,미분류,200개 이상,미분류,미분류,37.3903632245344,126.637620690296
네스트호텔(NEST HOTEL),인천 중구 용유동 영종해안남로 19-5,618,경기,국내,5성,370.0,200개 이상,관광호텔업,분류,37.4245606805297,126.425382234647
경원재엠베서더호텔,인천 연수구 테크노파크로 200,619,경기,국내,5성,30.0,100개 미만,한국전통호텔업,분류,37.39147527544444,126.63768422201431
홀리데이인인천송도호텔,인천 연수구 인천타워대로 251,620,경기,국내,4성,202.0,200개 이상,관광호텔업,분류,37.39309172172292,126.63301589479856
파라다이스시티,인천 중구 영종해안남로321번길 186,621,경기,국내,5성,769.0,200개 이상,관광호텔업,분류,37.437211074757,126.455768727895
호텔 스카이파크,인천 연수구 컨벤시아대로 233,622,경기,국내,3성,241.0,200개 이상,관광호텔업,분류,37.3843699326277,126.638891601276
프레시아 관광호텔,인천 강화군 길상면 전등사로 41,623,경기,국내,미등급,미분류,200개 이상,미분류,미분류,37.6321438399835,126.490996225353
호텔 에버리치,인천 강화군 강화읍 화성길50번길 43,624,경기,국내,미등급,미분류,200개 이상,미분류,미분류,37.7350014531584,126.474433265547
이코노미호텔 가평점,경기 가평군 설악면 유명로 1808-20,625,경기,국내,미등급,미분류,200개 이상,미분류,미분류,37.6782183213194,127.473853047759
클럽인너호텔앤리조트,경기 가평군 가평읍 북한강변로 382,626,경기,국내,미등급,미분류,200개 이상,미분류,미분류,37.7619599552712,127.5418747161826
파로티아 워터하우스호텔,경기 가평군 설악면 미사리로 707-98,627,경기,국내,미등급,미분류,200개 이상,미분류,미분류,37.71808,127.54174
캐비어파크알앤디리조트,경기 가평군 상면 덕현산장길 43-19,628,경기,국내,미등급,미분류,200개 이상,미분류,미분류,37.7538022995466,127.413486550892
까사32,경기 가평군 설악면 유명로 2384,629,경기,국내,미등급,미분류,200개 이상,미분류,미분류,37.7111430116234,127.445458775389
소노캄 고양,경기 고양시 일산동구 태극로 20,630,경기,국내,5성,826.0,200개 이상,관광호텔업,분류,37.6619253545306,126.750808685393
호텔 더 윈,경기 고양시 덕양구 원흥3로 6-14,631,경기,국내,미등급,미분류,200개 이상,미분류,미분류,37.64765991309652,126.87512895508942
라까사호텔 광명,경기 광명시 일직로12번길 22,632,경기,국내,3성,194.0,200개 미만,관광호텔업,분류,37.4212480528228,126.882023754299
광명 제이에스부티크호텔,경기 광명시 오리로854번길 16-18,633,경기,국내,2성,88.0,100개 미만,관광호텔업,분류,37.4742762128705,126.868856520846
김포 라인플러스호텔,경기 김포시 통진읍 김포대로 2337-1,634,경기,국내,미등급,미분류,200개 이상,미분류,미분류,37.69438969460757,126.58773933362475
김포 아리수호텔,경기 김포시 태장로795번길 123,635,경기,국내,1성,66.0,100개 미만,관광호텔업,분류,37.6379309,126.6825156
호텔라르김포,경기 김포시 고촌읍 장차로5번길 5-9,636,경기,국내,미등급,미분류,200개 이상,미분류,미분류,37.602701616121,126.76928405074644
레스트호텔,경기 김포시 태장로795번길 151,637,경기,국내,3성,70.0,100개 미만,관광호텔업,분류,37.639908769551965,126.6851359346077
펜타스타호텔,경기 김포시 태장로795번길 111,638,경기,국내,2성,69.0,100개 미만,관광호텔업,분류,37.6386485720567,126.683555066883
아셈호텔,경기 김포시 태장로795번길 145,639,경기,국내,3성,73.0,100개 미만,관광호텔업,분류,37.63953600000001,126.6845957
스타비아 관광호텔,경기 김포시 태장로795번길 147,640,경기,국내,미등급,미분류,200개 이상,미분류,미분류,37.64028590645376,126.68465847668467
골드관광호텔,경기 남양주시 별내면 청학로92번길 133,641,경기,국내,2성,48.0,100개 미만,관광호텔업,분류,37.7093864208741,127.11086444758028
호텔더메이,경기 남양주시 별내2로 70,642,경기,국내,3성,125.0,200개 미만,관광호텔업,분류,37.6467333390552,127.125213961112
제이디관광호텔,경기 남양주시 진접읍 해밀예당1로 50-44,643,경기,국내,2성,71.0,100개 미만,관광호텔업,분류,37.71198590667474,127.18760214398772
CH관광호텔,경기 남양주시 별내면 청학로 77,644,경기,국내,미등급,미분류,200개 이상,미분류,미분류,37.7072751724324,127.118547810525
파비아 관광호텔,경기 부천시 부일로 510,645,경기,국내,미등급,미분류,200개 이상,미분류,미분류,37.485038,126.786591
테마파크관광호텔,경기 부천시 길주로 69,646,경기,국내,미등급,미분류,200개 이상,미분류,미분류,37.506358,126.75008
제니스관광호텔,경기 부천시 길주로77번길 19-24,647,경기,국내,1성,59.0,100개 미만,관광호텔업,분류,37.50698562728966,126.74999909280388
부천호텔,경기 부천시 길주로 131,648,경기,국내,미등급,미분류,200개 이상,미분류,미분류,37.5059944021486,126.757197265463
폴라리스관광호텔,경기 부천시 소향로13번길 27,649,경기,국내,미등급,미분류,200개 이상,미분류,미분류,37.5050915200733,126.749055394078
고려호텔,경기 부천시 길주로 66,650,경기,국내,미등급,미분류,200개 이상,미분류,미분류,37.5053772335664,126.749524923122
리젠시호텔,경기 성남시 분당구 황새울로 352,651,경기,국내,1성,56.0,100개 미만,관광호텔업,분류,37.3867950508585,127.124193214643
성남 갤러리,경기 성남시 분당구 운중로146번길 29,652,경기,국내,미등급,미분류,200개 이상,미분류,미분류,37.39027659861198,127.08177885308147
호텔에스알,경기 부천시 석천로178번길 22,653,경기,국내,미등급,미분류,200개 이상,미분류,미분류,37.5028635525146,126.76402288221254
성남 바인호텔,경기도 성남시 중원구 산성대로 184,654,경기,국내,2성,66.0,100개 미만,관광호텔업,분류,37.43606330000001,127.1392599
메이트호텔,경기 성남시 분당구 황새울로335번길 7,655,경기,국내,2성,62.0,100개 미만,관광호텔업,분류,37.38617788888425,127.12155442342636
코트야드 바이 메리어트 서울 판교,경기 성남시 분당구 판교역로192번길 12,656,경기,국내,4성,282.0,200개 이상,관광호텔업,분류,37.3974981453401,127.11073542583
성남 루이스,경기 성남시 중원구 광명로 22-1,657,경기,국내,2성,100.0,200개 미만,관광호텔업,분류,37.43296231471363,127.13174477829122
성남 밀리토피아,경기 성남시 수정구 위례대로 83,658,경기,국내,4성,149.0,200개 미만,관광호텔업,분류,37.467552,127.144131
호텔야자 관광호텔,"경기 성남시 수정구 위례광장로 9-10 9, 10층",659,경기,국내,1성,35.0,100개 미만,관광호텔업,분류,37.464812,127.14083
서머셋센트럴분당,경기 성남시 분당구 황새울로311번길 36,660,경기,국내,3성,206.0,200개 이상,관광호텔업,분류,37.3865566748732,127.121207244573
카인드호텔,경기 성남시 분당구 황새울로329번길 10,661,경기,국내,3성,92.0,100개 미만,관광호텔업,분류,37.38625107921,127.121352417489
서울 그래비티 판교,경기 성남시 분당구 판교역로146번길 2,662,경기,국내,4성,306.0,200개 이상,관광호텔업,분류,37.39339368891012,127.11009472551052
코리아관광호텔,경기 수원시 팔달구 권광로175번길 62,663,경기,국내,미등급,미분류,200개 이상,미분류,미분류,37.2643054454002,127.028991248365
MS HOTEL,부산 해운대구 해운대해변로 271,664,부산,국내,미등급,미분류,200개 이상,미분류,미분류,35.1598100822894,129.161065011863
랜드마크호텔,경기 수원시 영통구 봉영로 1591,665,경기,국내,2성,104.0,200개 미만,관광호텔업,분류,37.2535364244665,127.072551212009
이비스앰배서더수원,경기 수원시 팔달구 권광로 132,666,경기,국내,3성,215.0,200개 이상,관광호텔업,분류,37.2592409945955,127.03131602714598
실크로드호텔,경기 수원시 팔달구 경수대로466번길 28,667,경기,국내,3성,90.0,100개 미만,관광호텔업,분류,37.267098767128445,127.02861351149214
심포니관광호텔,경기 수원시 영통구 반달로128번길 13,668,경기,국내,2성,64.0,100개 미만,관광호텔업,분류,37.2546041562482,127.075442421474
아모르관광호텔,경기 수원시 영통구 반달로128번길 9,669,경기,국내,미등급,64.0,100개 미만,관광호텔,분류,37.254458632891,127.075308475909
라마다 프라자 수원,경기 수원시 팔달구 중부대로 150,670,경기,국내,4성,287.0,200개 이상,관광호텔업,분류,37.27773006251538,127.03243997176952
노보텔 앰배서더 수원,경기 수원시 팔달구 덕영대로 902,671,경기,국내,4성,287.0,200개 이상,관광호텔업,분류,37.26848081506677,126.99909806037007
타소스호텔,경기 수원시 권선구 권선로669번길 26,672,경기,국내,1성,42.0,100개 미만,관광호텔업,분류,37.260968845701,127.025230382182
자니비,경기 수원시 팔달구 권광로175번길 31-6,673,경기,국내,미등급,29.0,100개 미만,일반호텔,분류,37.2635122055542,127.030280633188
도노호텔,강원 동해시 중앙로 210-1,674,강원,국내,미등급,미분류,200개 이상,미분류,미분류,37.519904,129.115988
로얄프라임호텔,경기 수원시 권선구 금곡로197번길 17-10,675,경기,국내,2성,65.0,100개 미만,관광호텔업,분류,37.2744843550611,126.951313944488
알렉스72호텔,경기 수원시 팔달구 효원로235번길 35,676,경기,국내,미등급,미분류,200개 이상,미분류,미분류,37.2645976420117,127.027913597894
홀리데이인익스프레스 수원인계,경기 수원시 팔달구 인계로 116,677,경기,국내,미등급,미분류,200개 이상,미분류,미분류,37.2674065471463,127.030129992356
호텔 아르떼,경기 수원시 팔달구 인계로108번길 37,678,경기,국내,3성,54.0,100개 미만,관광호텔업,분류,37.26613635032266,127.02904155537615
호텔리츠,경기 수원시 팔달구 권광로134번길 44-11,679,경기,국내,3성,45.0,100개 미만,관광호텔업,분류,37.25846549915948,127.03350261999972
해시 호텔,경기 수원시 팔달구 갓매산로 72-1,680,경기,국내,1성,46.0,100개 미만,관광호텔업,분류,37.2700431856491,127.003022687638
코트야드 메리어트 수원,경기 수원시 영통구 광교호수공원로 320,681,경기,국내,4성,288.0,200개 이상,관광호텔업,분류,37.28461169574131,127.0574928766068
아이비스테이,경기 수원시 팔달구 갓매산로76번길 9,682,경기,국내,미등급,미분류,200개 이상,미분류,미분류,37.27043515530479,127.00227520151948
마루호텔,경기 수원시 팔달구 고화로9번길 33,683,경기,국내,미등급,미분류,200개 이상,미분류,미분류,37.269621370958845,127.00626857497475
호텔 잇츠더블유,경기 수원시 팔달구 고화로13번길 23,684,경기,국내,미등급,미분류,200개 이상,미분류,미분류,37.2700889937414,127.006593318913
수원 호텔 가덴,경기 수원시 권선구 경수대로335번길 12,685,경기,국내,2성,29.0,100개 미만,소형호텔업,분류,37.25706989524014,127.0213501992704
더베이21 관광호텔,경기 시흥시 오이도로 123-1,686,경기,국내,2성,27.0,100개 미만,소형호텔업,분류,37.34790763147161,126.69047655781682
WEST RAVEN 호텔,경기 시흥시 옥터로 3,687,경기,국내,미등급,미분류,200개 이상,미분류,미분류,37.3475049348772,126.692920502788
빨간등대 관광호텔,경기 시흥시 오이도로135번길 10,688,경기,국내,1성,29.0,100개 미만,소형호텔업,분류,37.3474819330144,126.688944537533
시흥 서울투어리스트 호텔,경기 시흥시 군자천로 315,689,경기,국내,2성,59.0,100개 미만,관광호텔업,분류,37.34523495206339,126.73329634181832
씨하이호텔,경기 시흥시 오이도로135번길 72,690,경기,국내,1성,29.0,100개 미만,소형호텔업,분류,37.34216743929014,126.68680421303398
안산 서원관광호텔,경기 안산시 상록구 서암로 8,691,경기,국내,미등급,미분류,200개 이상,미분류,미분류,37.3021549097927,126.850008311533
아우라관광호텔,경기 안산시 상록구 양지편로 10,692,경기,국내,2성,70.0,100개 미만,관광호텔업,분류,37.3079003109276,126.84890724039872
IMT관광호텔,경기 안산시 상록구 성호로1길 12-4,693,경기,국내,2성,39.0,100개 미만,관광호텔업,분류,37.309669316846,126.868778608034
대부도호텔 마리나,경기 안산시 단원구 사근여길 5,694,경기,국내,미등급,미분류,200개 이상,미분류,미분류,37.2855389316839,126.57308435713183
C&B HOTEL,광주 동구 중앙로160번길 29,695,전라,국내,미등급,미분류,200개 이상,미분류,미분류,35.14668828118806,126.91589571863167
HOTEL SQUARE by savills,경기 안산시 단원구 동산로 81,696,경기,국내,미등급,미분류,200개 이상,미분류,미분류,37.314423434314,126.798997931128
호텔클로버,경기 안산시 상록구 양지편로 22,697,경기,국내,2성,88.0,100개 미만,관광호텔업,분류,37.3086099542416,126.850031586753
안산 엠블던,경기 안산시 단원구 중앙대로 869,698,경기,국내,미등급,미분류,200개 이상,미분류,미분류,37.3173665272258,126.832794062252
로자벨호텔,경기 안산시 단원구 원곡공원로 1,699,경기,국내,미등급,미분류,200개 이상,미분류,미분류,37.3337469115307,126.791679578403
호텔 마에스트로,경기 안성시 양성면 안성맞춤대로 2134-36,700,경기,국내,3성,25.0,100개 미만,소형호텔업,분류,37.10463941617246,127.25864659125912
코암관광호텔,경기 안양시 만안구 만안로 101,701,경기,국내,미등급,미분류,200개 이상,미분류,미분류,37.39178426358551,126.93137209679055
센트럴 관광호텔,경기 안양시 동안구 흥안대로 513,702,경기,국내,1성,52.0,100개 미만,관광호텔업,분류,37.39972269114484,126.97631787069108
삼원프라자호텔,경기 안양시 만안구 장내로139번길 7,703,경기,국내,미등급,미분류,200개 이상,미분류,미분류,37.39822749179309,126.92264639517072
어반뷰티크 호텔,경기 안양시 동안구 흥안대로 497,704,경기,국내,3성,80.0,100개 미만,관광호텔업,분류,37.3984268634917,126.976425568418
CS프리미어호텔,경기 안양시 만안구 경수대로 1180,705,경기,국내,3성,157.0,200개 미만,관광호텔업,분류,37.4159809154814,126.91692689082
이루다관광호텔,경기 안양시 만안구 만안로 71,706,경기,국내,미등급,미분류,200개 이상,미분류,미분류,37.389601,126.932901
현대 블룸비스타,경기 양평군 강하면 강남로 316,707,경기,국내,4성,292.0,200개 이상,관광호텔업,분류,37.500059556374,127.421796937443
쉐르빌온천관광호텔,경기 양평군 개군면 신내길7번길 37,708,경기,국내,3성,68.0,100개 미만,관광호텔업,분류,37.4682261888231,127.530864623764
한화리조트 양평,경기 양평군 옥천면 신촌길 188,709,경기,국내,미등급,미분류,200개 이상,미분류,미분류,37.5668694711227,127.457044427093
여주 썬밸리 호텔,경기 여주시 강변유원지길 45,710,경기,국내,4성,202.0,200개 이상,관광호텔업,분류,37.2915728,127.6645132
호텔 디,경기 오산시 원동로 5,711,경기,국내,1성,59.0,100개 미만,관광호텔업,분류,37.1426072338707,127.069158516163
얼레이,경기 용인시 기흥구 신정로 231,712,경기,국내,3성,100.0,200개 미만,관광호텔업,분류,37.28850210572818,127.09775667194366
아스트로,경기 용인시 수지구 포은대로 479,713,경기,국내,2성,94.0,100개 미만,관광호텔업,분류,37.3241321909168,127.102242490491
파인 관광호텔,경기 용인시 기흥구 삼성2로96번길 29-49,714,경기,국내,2성,35.0,100개 미만,관광호텔업,분류,37.21918594654271,127.08461444678656
소설스미스 호텔,경기 용인시 기흥구 민속촌로 57,715,경기,국내,미등급,35.0,100개 미만,관광호텔,분류,37.2558083445663,127.111089055391
더숨디앤씨,경기 용인시 처인구 포곡읍 성산로 633,716,경기,국내,미등급,미분류,200개 이상,미분류,미분류,37.2867129280392,127.208339547549
제이비스(JBIS) 호텔,경기 의정부시 청사로6번길 19-7,717,경기,국내,2성,58.0,100개 미만,관광호텔업,분류,37.7496078946751,127.072115974965
의정부 라트리 호텔(Uijeongbu La Tree Hotel),경기 의정부시 청사로6번길 19-13,718,경기,국내,2성,58.0,100개 미만,관광호텔업,분류,37.74976742691981,127.07201627739356
더 클라우드 호텔,제주특별자치도 서귀포시 성산읍 한도로 269-37,719,제주,국내,미등급,미분류,200개 이상,미분류,미분류,33.4690914875171,126.935227114179
호텔 미란다,경기 이천시 중리천로115번길 45,720,경기,국내,미등급,192.0,200개 미만,관광호텔,분류,37.2761764661251,127.450928773063
호텔더클래스,경기 이천시 중리천로 126-19,721,경기,국내,2성,72.0,100개 미만,관광호텔업,분류,37.2758099561354,127.447787558651
에덴낙원,경기 이천시 마장면 서이천로 449-82,722,경기,국내,미등급,미분류,200개 이상,미분류,미분류,37.26200709274342,127.3932224595434
호텔CC,서울 영등포구 영중로6길 23-6,723,서울,국내,미등급,미분류,200개 이상,미분류,미분류,37.51804597390011,126.90884140338284
메이트호텔,경기 성남시 분당구 황새울로335번길 7,724,경기,국내,미등급,미분류,200개 이상,미분류,미분류,37.38617788888425,127.12155442342636
호텔시에나,경기 파주시 소리천로 31,725,경기,국내,3성,100.0,200개 미만,관광호텔업,분류,37.7156103001849,126.761875349348
골든힐 관광호텔,경기 파주시 탄현면 성동로 36-30,726,경기,국내,2성,80.0,100개 미만,관광호텔업,분류,37.7767996311118,126.68786958416406
파주 오블라디 리조트,경기 파주시 문산읍 문현말길 113-10,727,경기,국내,미등급,미분류,200개 이상,미분류,미분류,37.846672,126.771097
호텔 뷰티풀,경기 파주시 중앙로 94-9,728,경기,국내,미등급,미분류,200개 이상,미분류,미분류,37.75166712448405,126.79343309954196
가보호텔,경기 평택시 평택5로76번길 18-10,729,경기,국내,미등급,미분류,200개 이상,미분류,미분류,36.99306064944288,127.11288502890464
평택스테이관광호텔,경기 평택시 평택1로 7,730,경기,국내,2성,67.0,100개 미만,관광호텔업,분류,36.99278720067268,127.0865714711729
평택 아시아 관광호텔,경기 평택시 신장로 33,731,경기,국내,미등급,미분류,200개 이상,미분류,미분류,37.0790228493342,127.050987705186
평택 메트로폴 호텔,경기 평택시 관광특구로 24,732,경기,국내,2성,50.0,100개 미만,관광호텔업,분류,37.0665975659603,127.061371364182
이끌림 클래식 호텔,경기 평택시 포승읍 평택항로184번길 3-13,733,경기,국내,미등급,미분류,200개 이상,미분류,미분류,36.9763403779637,126.842265112505
호텔 갤러리,경기 포천시 소흘읍 죽엽산로 432-17,734,경기,국내,1성,45.0,100개 미만,관광호텔업,분류,37.796193948806746,127.16459265538948
호텔 연,제주특별자치도 서귀포시 솔동산로22번길 17-2,735,제주,국내,미등급,미분류,200개 이상,미분류,미분류,33.2439429529686,126.562125064971
그린피아 관광호텔,경기 화성시 세자로 438,736,경기,국내,미등급,미분류,200개 이상,미분류,미분류,37.20377281168228,126.98342186867455
월드관광호텔,경기 화성시 향남읍 발안공단로5길 7-23,737,경기,국내,1성,80.0,100개 미만,관광호텔업,분류,37.0861143289843,126.90858856964716
스카이 관광호텔,제주특별자치도 제주시 서광로29길 3,738,제주,국내,미등급,미분류,200개 이상,미분류,미분류,33.50071390283031,126.52652863210407
제이스 관광호텔,경기 화성시 팔탄면 버들로1597번길 28,739,경기,국내,미등급,미분류,200개 이상,미분류,미분류,37.116444702281306,126.87546324558993
신라스테이 동탄,경기 화성시 노작로 161,740,경기,국내,3성,286.0,200개 이상,관광호텔업,분류,37.2024889856111,127.073196212033
롤링힐스 호텔,경기 화성시 남양읍 시청로 290,741,경기,국내,4성,228.0,200개 이상,관광호텔업,분류,37.1901763892666,126.838751256653
베니키아 더에이치 호텔,경기 화성시 남양읍 역골로 3-12,742,경기,국내,3성,90.0,100개 미만,관광호텔업,분류,37.20035705547146,126.82826751429069
호텔 푸르미르,경기 화성시 효행로 480,743,경기,국내,3성,239.0,200개 이상,관광호텔업,분류,37.20893691704586,126.98478047050232
엘가관광호텔,경기 화성시 향남읍 평6길 46-1,744,경기,국내,2성,74.0,100개 미만,관광호텔업,분류,37.130080637280585,126.90821611039785
율암힐호텔,경기 화성시 팔탄면 온천로 434-26,745,경기,국내,미등급,미분류,200개 이상,미분류,미분류,37.1512845879017,126.88287278064138
신안비치호텔,전남 목포시 해안로 2,746,전라,국내,3성,128.0,200개 미만,관광호텔업,분류,34.785508467954024,126.36921802140547
목포 샹그리아비치,전남 목포시 평화로 79,747,전라,국내,3성,71.0,100개 미만,관광호텔업,분류,34.797102421109095,126.43339481907964
목포 폰타나비치 호텔,전남 목포시 평화로 69,748,전라,국내,3성,67.0,100개 미만,관광호텔업,분류,34.79653863315067,126.4323387422136
호텔몬다비,전남 목포시 수강로4번길 33,749,전라,국내,미등급,미분류,200개 이상,미분류,미분류,34.78773798869536,126.38818598725868
유토피아가족호텔,전남 목포시 평화로 65-9,750,전라,국내,미등급,미분류,200개 이상,미분류,미분류,34.7969803632681,126.431962003851
목포 호텔 유달,전남 목포시 해안로 2,751,전라,국내,미등급,미분류,200개 이상,미분류,미분류,34.785508467954024,126.36921802140547
호텔마띠유여수,전남 여수시 오동도로 20,752,전라,국내,3성,43.0,100개 미만,관광호텔업,분류,34.7451810241321,127.744854452262
샹보르관광호텔,전남 여수시 공화남2길 20,753,전라,국내,미등급,미분류,200개 이상,미분류,미분류,34.7447993676004,127.74240490151
비앤비치관광호텔,전남 여수시 시청서6길 25,754,전라,국내,미등급,미분류,200개 이상,미분류,미분류,34.7565670345352,127.65957891703
나르샤관광호텔,전남 여수시 시청서6길 3,755,전라,국내,2성,48.0,100개 미만,관광호텔업,분류,34.7563542844991,127.65724869924986
H·S관광호텔,전남 여수시 오동도로 74,756,전라,국내,2성,49.0,100개 미만,관광호텔업,분류,34.7431442113345,127.750086495402
디오션리조트호텔,전남 여수시 소호로 295,757,전라,국내,3성,136.0,200개 미만,관광호텔업,분류,34.73186975455543,127.6442167403837
유캐슬호텔,전남 여수시 소라면 안심산길 155,758,전라,국내,3성,86.0,100개 미만,관광호텔업,분류,34.747911242414574,127.64145820546894
베니키아호텔여수,전남 여수시 시청서6길 19,759,전라,국내,2성,49.0,100개 미만,관광호텔업,분류,34.75656975471871,127.65907653497622
여수와이오션관광호텔,전남 여수시 망양로 20,760,전라,국내,미등급,미분류,200개 이상,미분류,미분류,34.75858150579926,127.74964175813652
오동도호텔,전남 여수시 오동도로 102,761,전라,국내,미등급,미분류,200개 이상,미분류,미분류,34.741556826562004,127.7522834004188
여수 호텔더시티,전남 여수시 좌수영로 641,762,전라,국내,3성,55.0,100개 미만,관광호텔업,분류,34.77758145703071,127.6899613054944
더 엘 관광호텔(THE L HOTEL),전남 여수시 이순신광장로 135,764,전라,국내,1성,35.0,100개 미만,관광호텔업,분류,34.7378825351066,127.738798843733
벨메르 바이 한화호텔앤드리조트,전남 여수시 웅천남4로 17,765,전라,국내,4성,100.0,200개 미만,관광호텔업,분류,34.7428095642887,127.672884010945
한옥호텔 오동재,전남 여수시 박람회길 99,766,전라,국내,3성,40.0,100개 미만,한국전통호텔업,분류,34.7554896059074,127.74658088386
베니키아 노블 호텔,서울 종로구 율곡로6길 13-3,767,서울,국내,1성,34.0,100개 미만,관광호텔업,분류,37.57666454782383,126.98967000156222
여수 지인호스텔,전남 여수시 돌산읍 강남2길 42-2,768,전라,국내,미등급,미분류,200개 이상,미분류,미분류,34.7190033417168,127.751497204019
용비치 관광호스텔,전남 여수시 돌산읍 진두해안길 76,769,전라,국내,미등급,미분류,200개 이상,미분류,미분류,34.7329343564437,127.743429948277
백패커스인여수호스텔,전남 여수시 공화남2길 14,770,전라,국내,미등급,미분류,200개 이상,미분류,미분류,34.74525246522241,127.74289818305998
라테라스 코브 스위트,전남 여수시 돌산읍 진모1길 29-12,771,전라,국내,미등급,88.0,100개 미만,숙박업(생활),분류,34.70872902874388,127.7564777678099
여수 씨스타,전남 여수시 소호1길 40,772,전라,국내,미등급,미분류,200개 이상,미분류,미분류,34.74726277272011,127.6579159984834
여수 지뜨,전남 여수시 여수시민로 1,773,전라,국내,미등급,미분류,200개 이상,미분류,미분류,34.7368894176066,127.749942614128
아리아 호스텔,전남 여수시 망양로 185,774,전라,국내,미등급,미분류,200개 이상,미분류,미분류,34.7713755511882,127.746610320659
낭만밤바다 호스텔,전남 여수시 이순신광장로 159,775,전라,국내,미등급,미분류,200개 이상,미분류,미분류,34.737388422309515,127.74131547694766
폴로니아 호스텔,전남 여수시 동문로 139,776,전라,국내,미등급,미분류,200개 이상,미분류,미분류,34.74841606396625,127.74471749991616
MJ호스텔,전남 여수시 오동도로 86,777,전라,국내,미등급,미분류,200개 이상,미분류,미분류,34.742537880740564,127.75091420298456
라포즈 호스텔,전남 여수시 돌산읍 돌산로 3169-26,778,전라,국내,미등급,미분류,200개 이상,미분류,미분류,34.70238392857556,127.75621154035537
여수 낭만 153,전남 여수시 이순신광장로 202,779,전라,국내,미등급,미분류,200개 이상,미분류,미분류,34.7390409993435,127.744809171699
여수비치리조트,전남 여수시 돌산읍 돌산로 3169-27,780,전라,국내,미등급,미분류,200개 이상,미분류,미분류,34.7024767843917,127.757660755767
여수 글로리아,전남 여수시 화양면 옥천로 1063-1,781,전라,국내,미등급,미분류,200개 이상,미분류,미분류,34.7436252693402,127.585967096387
르그랑블루,전남 여수시 돌산읍 무술목길 34,782,전라,국내,미등급,18.0,100개 미만,숙박업(생활),분류,34.687454555907,127.77775589542463
꿀잠호텔,전남 여수시 공화남2길 12,783,전라,국내,미등급,미분류,200개 이상,미분류,미분류,34.74545891527485,127.74304090313014
나폴리,전남 여수시 돌산읍 진두해안길 68,784,전라,국내,미등급,미분류,200개 이상,미분류,미분류,34.7331202000295,127.74251772041104
여수 카멜리아,전남 여수시 돌산읍 금천1길 45,785,전라,국내,미등급,미분류,200개 이상,미분류,미분류,34.63947126792151,127.725503498786
디아크리조트,전남 여수시 돌산읍 돌산로 3169-30,786,전라,국내,미등급,25.0,100개 미만,숙박업(생활),분류,34.701767090343,127.757548305964
KEY WEST,전남 여수시 이순신광장로 139,787,전라,국내,미등급,미분류,200개 이상,미분류,미분류,34.73773932787241,127.73949290845304
카펠라 펜션,전남 여수시 돌산읍 돌산로 3138,788,전라,국내,미등급,미분류,200개 이상,미분류,미분류,34.70187144534482,127.759912364691
르 파라디 펜션,전남 여수시 망양로 588,789,전라,국내,미등급,미분류,200개 이상,미분류,미분류,34.797176343673506,127.75517366367548
여수 슈가브리움,전남 여수시 돌산읍 몰둠벙길 58,790,전라,국내,미등급,미분류,200개 이상,미분류,미분류,34.698433,127.755061
CLIFF 39,전남 여수시 망양로 618,791,전라,국내,미등급,미분류,200개 이상,미분류,미분류,34.7996703963108,127.756783069074
진아리랑 호스텔,전남 여수시 돌산읍 강남2길 6-18,792,전라,국내,미등급,미분류,200개 이상,미분류,미분류,34.7221004913397,127.75267371863616
여수 썬힐스파펜션,전남 여수시 돌산읍 신추길 22,793,전라,국내,미등급,미분류,200개 이상,미분류,미분류,34.731573383514984,127.75177911456817
히든비치리조트,전남 여수시 돌산읍 마상포길 39-3,794,전라,국내,미등급,미분류,200개 이상,미분류,미분류,34.71108375235856,127.7691047139064
베네치아관광호텔,전남 순천시 팔마2길 13,795,전라,국내,2성,60.0,100개 미만,관광호텔업,분류,34.933595301495295,127.51894604829468
에코그라드관광호텔,전남 순천시 백강로 234,796,전라,국내,4성,104.0,200개 미만,관광호텔업,분류,34.9540150758824,127.521696773856
파인힐스관광호텔,전남 순천시 주암면 송광사길 99,797,전라,국내,2성,36.0,100개 미만,관광호텔업,분류,35.03465131087175,127.27219789537146
샤인호텔,전남 순천시 남신월길 4,798,전라,국내,미등급,미분류,200개 이상,미분류,미분류,34.95432370676917,127.51913030867098
호텔아이엠,전남 순천시 역전광장1길 6,799,전라,국내,2성,29.0,100개 미만,소형호텔업,분류,34.945428867089305,127.5001908201182
더베이호텔앤풀빌라,전남 순천시 동너리길 170,800,전라,국내,미등급,미분류,200개 이상,미분류,미분류,34.9064649358198,127.50452040491304
아트앤스테이,전남 순천시 팔마로 126,801,전라,국내,미등급,미분류,200개 이상,미분류,미분류,34.944951640911,127.50181681328
순천만 뜰,전남 순천시 동너리길 118,802,전라,국내,미등급,미분류,200개 이상,미분류,미분류,34.904410596738295,127.5036708175807
더 스카이,부산 해운대구 달맞이길 30,803,부산,국내,미등급,미분류,200개 이상,미분류,미분류,35.15958657405275,129.1697343615961
호텔캐슬,전남 순천시 상풍길 37,804,전라,국내,미등급,미분류,200개 이상,미분류,미분류,34.94778980556843,127.4937462933389
홀리어스관광호텔,전남 나주시 배멧2길 43,805,전라,국내,미등급,미분류,200개 이상,미분류,미분류,35.02010571573499,126.79199899133376
호텔코어,전남 나주시 배멧3길 19-13,806,전라,국내,미등급,미분류,200개 이상,미분류,미분류,35.020273997874384,126.78613547466917
담양리조트 가족호텔,전남 담양군 금성면 금성산성길 202,807,전라,국내,미등급,미분류,200개 이상,미분류,미분류,35.3658967252799,127.025431354334
더케이 지리산 가족호텔,전라남도 구례군 산동면 지리산온천로 317,808,전라,국내,3성,134.0,200개 미만,가족호텔업,분류,35.3219381,127.4618532
고흥 빅토리아 호텔,전남 고흥군 도화면 천마로 2736-29,809,전라,국내,미등급,미분류,200개 이상,미분류,미분류,34.4904944635168,127.3530733046791
진송관광호텔,전남 장흥군 장흥읍 동교2길 1,810,전라,국내,미등급,미분류,200개 이상,미분류,미분류,34.6777424419297,126.906163629552
해남남도호텔,전남 해남군 해남읍 영빈로 53,811,전라,국내,2성,50.0,100개 미만,관광호텔업,분류,34.5657504037432,126.606107033125
호텔현대 바이 라한 울산,울산 동구 방어진순환도로 875,812,경상,국내,4성,272.0,200개 이상,관광호텔업,분류,35.51962358353386,129.43035111657667
한국호텔영산재,전남 영암군 상호읍 나불외도로 126-17,813,전라,국내,미등급,미분류,200개 이상,미분류,미분류,34.783729,126.46324
HOTEL. THE STAR,서울 중구 소공로 119,814,서울,국내,미등급,미분류,200개 이상,미분류,미분류,37.56469234685201,126.97811069981492
장성 백양호텔,전남 장성군 북하면 백양로 941,815,전라,국내,미등급,미분류,200개 이상,미분류,미분류,35.41112824769319,126.8813730019866
은혜가족호텔,전남 장성군 북하면 백양로 1129-14,816,전라,국내,미등급,미분류,200개 이상,미분류,미분류,35.42735695098839,126.8772946387949
완도원네스리조트,전남 완도군 완도읍 청해진서로 189-50,817,전라,국내,미등급,미분류,200개 이상,미분류,미분류,34.300969145667864,126.73983955091852
쏠비치 호텔 진도,전남 진도군 의신면 송군길 30-40,818,전라,국내,4성,98.0,100개 미만,관광호텔업,분류,34.40071619108958,126.3280006203836
라한호텔 전주,전북 전주시 완산구 기린대로 85,819,전라,국내,4성,195.0,200개 미만,관광호텔업,분류,35.8170099,127.1540822
전주 코아,전북 전주시 완산구 신촌2길 20,820,전라,국내,미등급,미분류,200개 이상,미분류,미분류,35.81496570162203,127.1163964872933
호텔한성,전북 전주시 완산구 전주객사5길 43-3,821,전라,국내,미등급,미분류,200개 이상,미분류,미분류,35.8199061549787,127.144834016721
화이트관광호텔,전북 전주시 덕진구 전주천동로 501,822,전라,국내,미등급,미분류,200개 이상,미분류,미분류,35.8371793613106,127.130972572831
전주 풍남호텔,전북 전주시 완산구 팔달로 212-9,823,전라,국내,미등급,미분류,200개 이상,미분류,미분류,35.8216385894266,127.146886598615
전주관광호텔,전북 전주시 완산구 전주객사5길 44-5,824,전라,국내,미등급,46.0,100개 미만,관광호텔,분류,35.82042460090554,127.14539710591272
전주영화호텔,전북 전주시 완산구 전주객사2길 28-27,825,전라,국내,2성,71.0,100개 미만,관광호텔업,분류,35.8184249501118,127.141414263561
로니관광호텔,전북 전주시 완산구 전주객사4길 74-50,826,전라,국내,3성,81.0,100개 미만,관광호텔업,분류,35.820782851048186,127.14427567239674
엔브릿지호텔,전북 전주시 완산구 전주천서로 81,827,전라,국내,2성,32.0,100개 미만,관광호텔업,분류,35.8098903321488,127.15243335834
그랜드힐스턴호텔,전라북도 전주시 완산구 온고을로 211 (효자동3가),828,전라,국내,3성,100.0,200개 미만,관광호텔업,분류,35.8385016,127.10095
호텔오페라21,전북 전주시 덕진구 정언신로 186,829,전라,국내,1성,65.0,100개 미만,관광호텔업,분류,35.8317644691974,127.173737224265
더메이호텔,전북 전주시 덕진구 기린대로 800,830,전라,국내,미등급,미분류,200개 이상,미분류,미분류,35.85983144682244,127.09570542867236
나비잠 한옥호텔,전북 전주시 완산구 팔달로 150-17,831,전라,국내,1성,20.0,100개 미만,한국전통호텔업,분류,35.8161523126695,127.148602679796
황실한옥관광호텔,전북 전주시 완산구 은행로 22,832,전라,국내,미등급,미분류,200개 이상,미분류,미분류,35.81796170140455,127.15176194714692
늘품호텔,전북 전주시 완산구 기린대로 90,833,전라,국내,미등급,미분류,200개 이상,미분류,미분류,35.81726812635797,127.15498399440038
군산 리츠프라자,전북 군산시 한밭안길 30,834,전라,국내,2성,57.0,100개 미만,관광호텔업,분류,35.9583032745577,126.692256388319
베니키아아리울,전북 군산시 가도안1길 45,835,전라,국내,2성,45.0,100개 미만,관광호텔업,분류,35.9463047399309,126.561598560331
베스트웨스턴 군산호텔,전북 군산시 새만금북로 435,836,전라,국내,3성,181.0,200개 미만,관광호텔업,분류,35.9483460297496,126.583902932089
오스카 관광호텔,전북 군산시 소룡1길 55,837,전라,국내,미등급,미분류,200개 이상,미분류,미분류,35.97329658297759,126.6766977019628
라마다 군산,전북 군산시 대학로 400,838,전라,국내,4성,137.0,200개 미만,관광호텔업,분류,35.9588723869015,126.689833741078
호텔 은파 팰리스,전북 군산시 은파순환길 20,839,전라,국내,3성,65.0,100개 미만,관광호텔업,분류,35.9540376401391,126.689808526148
익산 그랜드팰리스호텔,전북 익산시 목천로1길 9,840,전라,국내,미등급,미분류,200개 이상,미분류,미분류,35.93032373504525,126.94471367954388
웨스턴라이프호텔,전북 익산시 동서로 380,841,전라,국내,4성,155.0,200개 미만,관광호텔업,분류,35.9503452570003,126.97598541619352
정읍 호텔로얄,전북 정읍시 중앙로 170,842,전라,국내,2성,21.0,100개 미만,소형호텔업,분류,35.5645303920708,126.856565641779
스위트호텔남원,전북 남원시 주천면 원천로 217,843,전라,국내,4성,59.0,100개 미만,관광호텔업,분류,35.408054498152346,127.41524037485308
오헤브데이 호텔,전북 남원시 운봉읍 바래봉길 193,844,전라,국내,미등급,77.0,100개 미만,관광호텔,분류,35.433125272001966,127.54753380513236
나봄리조트,전북 무주군 설천면 월곡길 45,845,전라,국내,미등급,미분류,200개 이상,미분류,미분류,35.897156911291965,127.77325499482522
신라스테이 천안,충남 천안시 서북구 동서대로 177,846,충청,국내,3성,305.0,200개 이상,관광호텔업,분류,36.8257450133511,127.143187632607
천안 메트로 호텔,충남 천안시 동남구 대흥로 241-11,847,충청,국내,2성,50.0,100개 미만,관광호텔업,분류,36.810578937115,127.14793793582
천안 티포인트,충남 천안시 서북구 성정공원5로 42,848,충청,국내,3성,51.0,100개 미만,관광호텔업,분류,36.8274897902078,127.142243706373
천안관광호텔,충청남도 천안시 서북구 양지21길 42 (성정동),849,충청,국내,3성,55.0,100개 미만,관광호텔업,분류,36.8123867,127.1402545
보령 머드린,충남 보령시 해수욕장8길 28,850,충청,국내,미등급,미분류,200개 이상,미분류,미분류,36.3137543936943,126.51214576425
온양 관광호텔,충남 아산시 온천대로 1459,851,충청,국내,3성,175.0,200개 미만,관광호텔업,분류,36.7832374561376,126.999094816879
온양제일호텔,충남 아산시 온천대로 1462,852,충청,국내,미등급,미분류,200개 이상,미분류,미분류,36.7821344937766,126.99964935859292
당진관광호텔,충남 당진시 송악읍 반촌로 192,853,충청,국내,미등급,미분류,200개 이상,미분류,미분류,36.9020425905385,126.701410951889
말리호텔앤리조트,충남 태안군 소원면 만리포1길 95,854,충청,국내,미등급,미분류,200개 이상,미분류,미분류,36.7868705287949,126.145107264222
롱비치패밀리호텔,충남 태안군 소원면 만리포2길 120,855,충청,국내,미등급,미분류,200개 이상,미분류,미분류,36.78463650801954,126.14144754432115
호텔선샤인,대전 동구 동서대로 1700,856,충청,국내,미등급,미분류,200개 이상,미분류,미분류,36.3491637285729,127.438530929565
플라밍고호텔,대전 동구 동서대로1683번길 76-7,857,충청,국내,미등급,미분류,200개 이상,미분류,미분류,36.3526346014338,127.43586939807
휴앤유관광호텔,대전 서구 한밭대로570번길 29-12,858,충청,국내,미등급,미분류,200개 이상,미분류,미분류,36.35694771835058,127.36275984073762
디엠프레스호텔,대전 서구 한밭대로570번길 29-20,859,충청,국내,2성,66.0,100개 미만,관광호텔업,분류,36.3569507281287,127.363252300025
롯데시티호텔대전,대전 유성구 엑스포로123번길 33,860,충청,국내,4성,306.0,200개 이상,관광호텔업,분류,36.3762083761198,127.392666356303
유성호텔,대전 유성구 온천로 9,861,충청,국내,미등급,189.0,200개 미만,관광호텔,분류,36.3563034823053,127.338779743928
호텔인터시티,대전 유성구 온천로 92,862,충청,국내,미등급,미분류,200개 이상,미분류,미분류,36.3542612141621,127.347852861397
나봄 S&호텔,대전 유성구 테크노중앙로 69,863,충청,국내,미등급,미분류,200개 이상,미분류,미분류,36.4258455466354,127.39327065487
테크노밸리 호텔,대전 유성구 테크노중앙로 57,864,충청,국내,3성,74.0,100개 미만,관광호텔업,분류,36.4263937861367,127.392073550776
JH레전드(베스트웨스턴호텔레전드),대전 유성구 계룡로141번길 21,865,충청,국내,미등급,미분류,200개 이상,미분류,미분류,36.35352090244184,127.34592688600824
ICC호텔,대전 유성구 엑스포로123번길 55,866,충청,국내,3성,90.0,100개 미만,관광호텔업,분류,36.3770173212796,127.392677220422
계룡스파텔,대전 유성구 온천로 81,867,충청,국내,3성,143.0,200개 미만,관광호텔업,분류,36.3550740046837,127.348278945769
경하온천호텔,대전 유성구 온천로101번길 30,868,충청,국내,미등급,미분류,200개 이상,미분류,미분류,36.35571176468928,127.34960646669764
호텔스카이파크 대전 1호점,대전 유성구 테크노중앙로 161,869,충청,국내,미등급,미분류,200개 이상,미분류,미분류,36.4239102582203,127.398690240593
아이호텔,대전 유성구 엑스포로123번길 27-5,870,충청,국내,미등급,미분류,200개 이상,미분류,미분류,36.3748616870667,127.393098543317
대림호텔(베니키아호텔대림),대전 중구 대종로505번길 50,871,충청,국내,2성,44.0,100개 미만,관광호텔업,분류,36.3285133279335,127.422437169516
제주 엠스테이,제주특별자치도 서귀포시 태평로353번길 14,872,제주,국내,미등급,미분류,200개 이상,미분류,미분류,33.2468465037737,126.56067593301572
그린트리인 서귀포(그랜드밀리언스),제주 서귀포시 서호중앙로 84,874,제주,국내,미등급,139.0,200개 미만,일반호텔,분류,33.2545566346115,126.520018212886
더베스트제주성산,제주특별자치도 서귀포시 성산읍 동류암로 26,875,제주,국내,미등급,273.0,200개 이상,일반호텔,분류,33.4496912320246,126.917136600762
골든데이지호텔서귀포오션,제주특별자치도 서귀포시 동홍로 7,876,제주,국내,미등급,281.0,200개 이상,일반호텔,분류,33.2493808306778,126.567447849341
디아일랜드 블루,제주특별자치도 서귀포시 태평로431번길 3,877,제주,국내,미등급,미분류,200개 이상,미분류,미분류,33.245823905238,126.565768270616
이스턴 호텔 제주,제주특별자치도 서귀포시 서호중로 65,878,제주,국내,미등급,148.0,200개 미만,일반호텔,분류,33.2543667693135,126.520069473443
라마다앙코르제주서귀포,제주특별자치도 서귀포시 서호중로 55,879,제주,국내,미등급,미분류,200개 이상,미분류,미분류,33.2544058319426,126.519258188682
라마다제주시티,제주특별자치도 제주시 중앙로 304,880,제주,국내,미등급,375.0,200개 이상,일반호텔,분류,33.4935326453019,126.534313495602
라마다제주함덕,제주특별자치도 제주시 조천읍 신북로 470,881,제주,국내,미등급,275.0,200개 이상,일반호텔,분류,33.5432711882119,126.659788854649
라마다프라자제주,제주특별자치도 제주시 탑동로 66,882,제주,국내,미등급,400.0,200개 이상,관광호텔,분류,33.51878081111122,126.51809364015251
신신호텔 제주공항,제주특별자치도 제주시 도령로 124,883,제주,국내,미등급,199.0,200개 미만,일반호텔,분류,33.4921775064823,126.490536369808
제주 리젠트마린 더 블루,제주특별자치도 제주시 서부두2길 20,884,제주,국내,미등급,미분류,200개 이상,미분류,미분류,33.5174194337395,126.526751942838
베스트웨스턴 제주,제주특별자치도 제주시 도령로 27,885,제주,국내,미등급,346.0,200개 이상,관광호텔,분류,33.4878001190012,126.481864825168
서귀포 알레그리아,제주특별자치도 서귀포시 중앙로47번길 25,886,제주,국내,미등급,미분류,200개 이상,미분류,미분류,33.2481548937122,126.558927817924
브라운 스위트 제주,제주특별자치도 서귀포시 성산읍 고성오조로 94,887,제주,국내,미등급,181.0,200개 미만,일반호텔,분류,33.452020051115,126.914549787326
비스타케이 호텔 월드컵,제주특별자치도 서귀포시 김정문화로41번길 10-6,888,제주,국내,미등급,미분류,200개 이상,미분류,미분류,33.25191288363028,126.50980174487913
제주 센트럴 시티,제주특별자치도 제주시 노연로 66,889,제주,국내,미등급,197.0,200개 미만,일반호텔,분류,33.4857636445383,126.487119947384
서귀포 윈 스카이,제주특별자치도 서귀포시 신중남로 17,890,제주,국내,미등급,미분류,200개 이상,미분류,미분류,33.25309690659701,126.50847842436616
골든튤립제주성산,제주특별자치도 서귀포시 성산읍 일출로 31,891,제주,국내,미등급,222.0,200개 이상,일반호텔,분류,33.4480868143883,126.916197473917
아이미제주비치,제주특별자치도 제주시 조천읍 조함해안로 474,892,제주,국내,미등급,미분류,200개 이상,미분류,미분류,33.543292903717706,126.66341313697704
아트스테이서귀포하버,제주 서귀포시 태평로 436,893,제주,국내,미등급,미분류,200개 이상,미분류,미분류,33.2454878768542,126.566624058678
더 아트스테이,제주특별자치도 제주시 조천읍 조함해안로 504,894,제주,국내,미등급,미분류,200개 이상,미분류,미분류,33.54238717235667,126.66688356710326
오션팰리스,제주특별자치도 서귀포시 중앙로 14,895,제주,국내,미등급,214.0,200개 이상,숙박업(생활),분류,33.2459597196962,126.562329614637
체이슨 호텔 더 스마일,제주특별자치도 서귀포시 신서로48번길 50,896,제주,국내,미등급,미분류,200개 이상,미분류,미분류,33.2528727552052,126.510167681373
제주 유탑유블레스,제주특별자치도 제주시 조천읍 조함해안로 502,897,제주,국내,미등급,미분류,200개 이상,미분류,미분류,33.5424154154218,126.666222590508
코업시티성산,제주특별자치도 서귀포시 성산읍 성산등용로 28,898,제주,국내,미등급,185.0,200개 미만,일반호텔,분류,33.4659922194634,126.931886328749
코업시티하버뷰,제주특별자치도 서귀포시 남원읍 태위로 108,899,제주,국내,미등급,미분류,200개 이상,미분류,미분류,33.2744870401633,126.658997635847
글로스터 제주,제주특별자치도 제주시 삼무로 57,900,제주,국내,미등급,428.0,200개 이상,일반호텔,분류,33.4900732091673,126.492628327312
호텔위드제주,제주특별자치도 제주시 노연로 34,901,제주,국내,미등급,98.0,100개 미만,일반호텔,분류,33.4858521824034,126.483819523935
휘슬락,제주특별자치도 제주시 서부두2길 26,902,제주,국내,미등급,349.0,200개 이상,일반호텔,분류,33.5174024584584,126.52750107846
호텔 케니 서귀포,제주특별자치도 서귀포시 동문로 42,904,제주,국내,미등급,324.0,200개 이상,일반호텔,분류,33.2502262308781,126.565052645156
호텔윈스토리제주,제주특별자치도 서귀포시 중정로 11,905,제주,국내,미등급,미분류,200개 이상,미분류,미분류,33.24770101130141,126.55755659412212
호텔 케니 여수,전남 여수시 충무로 54-2,906,전라,국내,미등급,178.0,200개 미만,일반호텔,분류,34.7412824542032,127.731640641718
베스트웨스턴플러스 전주,전북 전주시 완산구 현무1길 41,907,전라,국내,미등급,미분류,200개 이상,미분류,미분류,35.822257831810134,127.14682355578476
라마다 전주,전북 전주시 완산구 팔달로 227,908,전라,국내,미등급,미분류,200개 이상,미분류,미분류,35.8223487822872,127.144956087126
더화이트호텔평창,강원 평창군 봉평면 태기로 228-95,909,강원,국내,미등급,미분류,200개 이상,미분류,미분류,37.57625953380736,128.3334766828809
강릉세인트존스경포,강원 강릉시 창해로 307,910,강원,국내,미등급,1071.0,200개 이상,일반호텔,분류,37.7913120866104,128.92102061555
더잭슨나인스,강원 춘천시 중앙로 193,911,강원,국내,미등급,미분류,200개 이상,미분류,미분류,37.8737532152498,127.714130268235
켄트호텔 광안리 바이 켄싱턴,부산 수영구 광안해변로 229,913,부산,국내,미등급,85.0,100개 미만,숙박업(생활),분류,35.1543394051956,129.118999130307
호텔 크레토,서울 중구 명동8가길 53,917,서울,국내,2성,35.0,100개 미만,관광호텔업,분류,37.5619583488441,126.9880772809879
24게스트하우스 명동타운점,서울 중구 퇴계로 61,918,서울,국내,미등급,11.0,100개 미만,숙박업 기타,분류,37.5593602118857,126.978897497583
호텔 더 디자이너스 동대문,서울 중구 퇴계로 306,919,서울,국내,미등급,99.0,100개 미만,관광호텔,분류,37.563662689958,127.005654309098
솔라리아 니시테츠 호텔 서울 명동,서울 중구 명동8길 27,920,서울,국내,3성,312.0,200개 이상,관광호텔업,분류,37.562500598605,126.985162026787
24게스트하우스 서울시청점,서울 중구 덕수궁길 7,921,서울,국내,미등급,미분류,200개 이상,미분류,미분류,37.56477219266435,126.97633363330202
호텔 스카이파크 센트럴 명동점,서울 중구 명동9길 16,922,서울,국내,3성,312.0,200개 이상,관광호텔업,분류,37.56458173246226,126.98526076598937
에이큐브 호텔,서울 중구 동호로35길 5,923,서울,국내,3성,43.0,100개 미만,관광호텔업,분류,37.5661792945506,127.001764172998
크라운파크 호텔,서울 중구 남대문로7길 19,924,서울,국내,3성,204.0,200개 이상,관광호텔업,분류,37.5637665868218,126.980776499589
소테츠호텔즈 더 스프라지르 서울 명동,서울 중구 남대문로5길 15,925,서울,국내,4성,428.0,200개 이상,관광호텔업,분류,37.5620543516072,126.978780385233
롯데시티호텔명동,서울 중구 삼일대로 362,926,서울,국내,4성,435.0,200개 이상,관광호텔업,분류,37.5669367134426,126.98807580841
L7명동,서울 중구 퇴계로 137,927,서울,국내,미등급,251.0,200개 이상,관광호텔,분류,37.561384298991165,126.98698855837377
라마다 바이 윈덤 서울 동대문,서울 중구 동호로 354,928,서울,국내,미등급,미분류,200개 이상,미분류,미분류,37.56588906618329,127.00269390186467
케이 게스트하우스 동대문프리미엄점,서울 중구 장충단로 213,929,서울,국내,미등급,미분류,200개 이상,미분류,미분류,37.5636958791486,127.006750403237
96번지 트래블러스 롯지,서울 중구 퇴계로 343-1,930,서울,국내,미등급,미분류,200개 이상,미분류,미분류,37.56478947492173,127.00979977289488
영빈호텔,서울 중구 퇴계로56길 18,932,서울,국내,미등급,미분류,200개 이상,미분류,미분류,37.563000374102,127.005514362649
티마크그랜드호텔명동,서울 중구 퇴계로 52,933,서울,국내,미등급,미분류,200개 이상,미분류,미분류,37.55862154103367,126.9787111882994
호텔 스카이파크 킹스타운 동대문지점,서울 중구 장충단로13길 20,934,서울,국내,미등급,미분류,200개 이상,미분류,미분류,37.5686434582653,127.007732349005
트레블로지 동대문 호텔,서울 중구 동호로 359,935,서울,국내,3성,242.0,200개 이상,관광호텔업,분류,37.566413731834,127.001885291771
호텔 28,경기 시흥시 월곶중앙로70번안길 28,936,경기,국내,미등급,40.0,100개 미만,여관업,분류,37.38978230261554,126.74051138924588
호텔스카이파크명동Ⅱ,서울 중구 명동9길 22,937,서울,국내,2성,132.0,200개 미만,관광호텔업,분류,37.5649212915933,126.985051301865
알로프트서울명동호텔,서울 중구 남대문로 56,938,서울,국내,4성,223.0,200개 이상,관광호텔업,분류,37.5622744476346,126.981924112804
나인트리 프리미어호텔 명동2,서울 중구 마른내로 28,939,서울,국내,4성,408.0,200개 이상,관광호텔업,분류,37.5643461525469,126.99092434126
G2 호텔,서울 중구 수표로 24,940,서울,국내,미등급,미분류,200개 이상,미분류,미분류,37.563349700835,126.990419995206
명동 G-STAR,서울 중구 퇴계로18길 41,941,서울,국내,미등급,미분류,200개 이상,미분류,미분류,37.5591072415268,126.984981160773
호텔더디자이너스 디디피,서울 중구 퇴계로 293,942,서울,국내,미등급,미분류,200개 이상,미분류,미분류,37.56377979345836,127.00410412300518
디어스명동,서울 중구 퇴계로 176,944,서울,국내,미등급,112.0,200개 미만,관광호텔,분류,37.5608089580339,126.991294081463
노보텔 앰배서더 서울 동대문 호텔,서울 중구 을지로 238,945,서울,국내,5성,331.0,200개 이상,관광호텔업,분류,37.5662707688028,127.004349541813
레스케이프 호텔,서울 중구 퇴계로 67,946,서울,국내,4성,204.0,200개 이상,관광호텔업,분류,37.559682151965866,126.97948729970663
명동미스코리아,서울 중구 퇴계로18길 43,947,서울,국내,미등급,미분류,200개 이상,미분류,미분류,37.55893423171848,126.9848374586371
케이스타호텔,서울 중구 을지로 255,948,서울,국내,미등급,미분류,200개 이상,미분류,미분류,37.56645293995669,127.00652766771071
나인트리 호텔 동대문,서울 중구 을지로 224,949,서울,국내,미등급,219.0,200개 이상,일반호텔,분류,37.5666140024765,127.002907857545
포포인츠 명동,서울 중구 삼일대로10길 36,950,서울,국내,미등급,미분류,200개 이상,미분류,미분류,37.56557687854458,126.98942364960428
플로라 호텔 신신 서울 명동,서울 중구 남대문로5길 17-5,951,서울,국내,미등급,미분류,200개 이상,미분류,미분류,37.5623237359225,126.978704475713
서울 크라운관광호텔,서울 용산구 녹사평대로 140,953,서울,국내,미등급,미분류,200개 이상,미분류,미분류,37.5315696887972,126.99066843796
해밀톤호텔,서울 용산구 이태원로 179,954,서울,국내,4성,166.0,200개 미만,관광호텔업,분류,37.5348143960679,126.993735204809
몬드리안 서울 이태원,서울 용산구 장문로 23,955,서울,국내,5성,297.0,200개 이상,관광호텔업,분류,37.5285655568387,126.993107501389
I T W 호텔,제주특별자치도 제주시 정원로 57,956,제주,국내,미등급,미분류,200개 이상,미분류,미분류,33.4769121096851,126.47745782527
가야라트리 호텔,서울 용산구 한강대로 253,957,서울,국내,미등급,미분류,200개 이상,미분류,미분류,37.5408399121659,126.972323198122
에이원호텔,서울 용산구 이태원로20길 2-8,958,서울,국내,1성,21.0,100개 미만,소형호텔업,분류,37.5340168804998,126.99163888254805
임피리얼팰리스 부띠끄 호텔,서울 용산구 이태원로 221,959,서울,국내,3성,128.0,200개 미만,관광호텔업,분류,37.5353399249176,126.998398121891
호텔 더 디자이너스 서울역 ,서울 용산구 한강대로 305,960,서울,국내,2성,100.0,200개 미만,관광호텔업,분류,37.5455498919363,126.971585248432
호텔 엘르인,서울 용산구 한강대로71길 24,961,서울,국내,미등급,54.0,100개 미만,일반호텔,분류,37.5404110062951,126.972195835908
그랜드머큐어 앰배서더 서울 용산,서울 용산구 청파로20길 95,962,서울,국내,5성,196.0,200개 미만,가족호텔업,분류,37.532075636391,126.961763870598
노보텔 스위트 앰배서더 서울 용산,서울 용산구 청파로20길 95,963,서울,국내,미등급,미분류,200개 이상,미분류,미분류,37.5319146846199,126.962788981096
노보텔 앰배서더 서울 용산,서울 용산구 청파로20길 95,964,서울,국내,5성,621.0,200개 이상,관광호텔업,분류,37.532075636391,126.961763870598
드래곤시티 이비스 스타일 앰배서더,서울 용산구 청파로20길 95,965,서울,국내,미등급,591.0,200개 이상,관광호텔,분류,37.5319146846199,126.962788981096
아모렉스 관광호텔,서울 성동구 왕십리로20길 19,966,서울,국내,미등급,미분류,200개 이상,미분류,미분류,37.5636042991759,127.03530035464904
새턴호텔(SATURN HOTEL),서울 성동구 자동차시장1길 29,967,서울,국내,미등급,미분류,200개 이상,미분류,미분류,37.5614098980356,127.060815152068
호텔컬리넌 도선,서울 성동구 무학로2길 47,968,서울,국내,미등급,미분류,200개 이상,미분류,미분류,37.56261425909276,127.034778108381
호텔 포코(POCO),서울 성동구 성수이로 96,969,서울,국내,미등급,80.0,100개 미만,일반호텔,분류,37.5434323,127.0569979
호텔 이노스테이,서울 성동구 천호대로 302,970,서울,국내,미등급,미분류,200개 이상,미분류,미분류,37.565566,127.053746
동서울 관광호텔,서울 광진구 구의강변로 38,971,서울,국내,미등급,미분류,200개 이상,미분류,미분류,37.534172439894,127.091888748346
그랜드 워커힐 서울,서울 광진구 워커힐로 177,972,서울,국내,5성,244.0,200개 이상,관광호텔업,분류,37.55522778434594,127.11089257243468
더 클래식 500 펜타즈,서울 광진구 능동로 90,973,서울,국내,4성,84.0,100개 미만,관광호텔업,분류,37.5387765,127.0710831
호텔 컬리넌 건대,서울 광진구 동일로 212,974,서울,국내,1성,55.0,100개 미만,관광호텔업,분류,37.55054114822904,127.06904027247326
호텔더디자이너스건대,서울특별시 광진구 중곡동 천호대로 521,975,서울,국내,2성,75.0,100개 미만,관광호텔업,분류,37.55861549999999,127.0765753
호텔부티크나인 능동,서울 광진구 천호대로 560,976,서울,국내,1성,86.0,100개 미만,관광호텔업,분류,37.556457319102265,127.08010517778877
호텔컬리넌건대2,서울 광진구 동일로 214,977,서울,국내,미등급,미분류,200개 이상,미분류,미분류,37.5507845696226,127.069242498827
에이치 에비뉴 건대점,서울 광진구 동일로 156,978,서울,국내,미등급,미분류,200개 이상,미분류,미분류,37.546028541315394,127.06660997947182
호텔더디자이너스프리미어건대,서울 광진구 동일로 172,979,서울,국내,2성,100.0,200개 미만,관광호텔업,분류,37.54733640212203,127.06729689933591
호텔케이월드,서울 광진구 동일로 90,980,서울,국내,1성,54.0,100개 미만,관광호텔업,분류,37.54058213193471,127.06342525517582
BENIKEA Hotel FLOWER,서울 동대문구 왕산로 269,981,서울,국내,미등급,미분류,200개 이상,미분류,미분류,37.5848514194616,127.050544979279
호텔 부티크나인 동대문,서울 동대문구 왕산로 28,982,서울,국내,2성,91.0,100개 미만,관광호텔업,분류,37.57638985450714,127.02681261504308
HOTEL THE DESIGNERS CHEONGNYANGNI,서울 동대문구 왕산로 226,983,서울,국내,미등급,미분류,200개 이상,미분류,미분류,37.5817712341459,127.047631053735
라마다앙코르 동대문 호텔,서울 동대문구 왕산로 22,984,서울,국내,미등급,미분류,200개 이상,미분류,미분류,37.5761845933785,127.02607331454
골든씨티호텔,서울 동대문구 천호대로 377,985,서울,국내,미등급,미분류,200개 이상,미분류,미분류,37.5623684598403,127.061006080033
더 리센츠,서울 동대문구 천호대로 383,986,서울,국내,미등급,미분류,200개 이상,미분류,미분류,37.5622744199462,127.061653413936
디 에블린,서울 동대문구 장한로2길 48,987,서울,국내,미등급,미분류,200개 이상,미분류,미분류,37.561971,127.067592
SM부티크호텔,서울 동대문구 천호대로 291-1,988,서울,국내,1성,34.0,100개 미만,관광호텔업,분류,37.566824808028166,127.05353234609612
호텔 유니크바이포레,서울 동대문구 이문로 192,989,서울,국내,미등급,미분류,200개 이상,미분류,미분류,37.6037378209051,127.062244789853
체이슨 엠(CHASON M),서울 동대문구 회기로 188-12,990,서울,국내,미등급,미분류,200개 이상,미분류,미분류,37.5893644299725,127.056634989922
드씨엘관광호텔,서울 중랑구 동일로 866,991,서울,국내,2성,60.0,100개 미만,관광호텔업,분류,37.60771760996796,127.07865159645462
라코지스테이서울,서울 중랑구 망우로 232,992,서울,국내,미등급,미분류,200개 이상,미분류,미분류,37.5942461283863,127.078459641581
D.H 네상스,서울 성북구 동소문로20나길 39,993,서울,국내,미등급,미분류,200개 이상,미분류,미분류,37.592685899028105,127.01857986576093
아리랑힐 호텔 동대문,서울 성북구 아리랑로 8,994,서울,국내,3성,190.0,200개 미만,관광호텔업,분류,37.5936583541298,127.016672161833
에이치에비뉴 성신여대점 호텔,서울 성북구 동소문로 130,995,서울,국내,미등급,미분류,200개 이상,미분류,미분류,37.59413101641151,127.0190410789387
쏠라리움씨티,서울 강북구 덕릉로 111,996,서울,국내,미등급,미분류,200개 이상,미분류,미분류,37.63516429773773,127.026063319692
더데이호텔,서울 도봉구 도봉로 903,997,서울,국내,미등급,미분류,200개 이상,미분류,미분류,37.68511594439333,127.04571648677012
호텔베이 204,서울 도봉구 도봉로 710,998,서울,국내,미등급,미분류,200개 이상,미분류,미분류,37.6677809956902,127.043632795324
노블레스 관광호텔,서울 노원구 노해로77길 22,999,서울,국내,미등급,미분류,200개 이상,미분류,미분류,37.6551892207142,127.05936394096
프라임인서울호텔,서울 은평구 통일로 816,1000,서울,국내,미등급,미분류,200개 이상,미분류,미분류,37.6168662200774,126.923914558241
라비야호텔,서울 은평구 진흥로 138,1001,서울,국내,미등급,미분류,200개 이상,미분류,미분류,37.60789691203256,126.92552271130327
호텔씨에스에비뉴,서울 은평구 통일로 585-1,1002,서울,국내,2성,70.0,100개 미만,관광호텔업,분류,37.59907633089061,126.93650440123344
브릭스관광호텔,서울 은평구 은평로8길 1,1003,서울,국내,2성,53.0,100개 미만,관광호텔업,분류,37.5999005141928,126.921189037102
호텔디아티스트 연신내점,서울 은평구 통일로 891,1004,서울,국내,2성,48.0,100개 미만,관광호텔업,분류,37.622488964534,126.9194955251702
포레스타호텔,서울 성동구 무학로2길 51,1005,서울,국내,미등급,미분류,200개 이상,미분류,미분류,37.56242939659549,127.03531111868428
호텔루 136,서울 은평구 진흥로 136,1006,서울,국내,2성,51.0,100개 미만,관광호텔업,분류,37.6077381933988,126.92529409948
스위스그랜드호텔,서울 서대문구 연희로 353,1007,서울,국내,5성,503.0,200개 이상,관광호텔업,분류,37.5893782439197,126.935518414726
신라스테이 서대문,서울 서대문구 충정로 76,1008,서울,국내,3성,319.0,200개 이상,관광호텔업,분류,37.5651572276797,126.966774328509
신촌라싸관광호텔,서울 서대문구 연세로2가길 3,1009,서울,국내,1성,44.0,100개 미만,관광호텔업,분류,37.55611289094558,126.9373738363675
호텔 밀하우스,서울 서대문구 연세로2나길 5,1010,서울,국내,1성,47.0,100개 미만,관광호텔업,분류,37.5563880199785,126.93798927683544
신촌 EVER 8 레지던스 호텔,서울 서대문구 신촌역로 7,1011,서울,국내,1성,57.0,100개 미만,가족호텔업,분류,37.5573527481625,126.942500021232
서울그랜드호스텔 이대,서울 서대문구 신촌로 155,1012,서울,국내,미등급,미분류,200개 이상,미분류,미분류,37.556942974515614,126.94324469206236
위고인(wegoinn),서울 서대문구 신촌로 141 위고인호스텔빌딩,1013,서울,국내,미등급,미분류,200개 이상,미분류,미분류,37.557014,126.941613
베스트웨스턴프리미어 서울가든호텔,서울 마포구 마포대로 58,1014,서울,국내,4성,372.0,200개 이상,관광호텔업,분류,37.5406839207239,126.948361035181
스탠포드호텔코리아 스텐포드호텔 서울,서울 마포구 월드컵북로58길 15,1016,서울,국내,4성,239.0,200개 이상,관광호텔업,분류,37.58236797309298,126.8866953497733
더 엠 호텔,서울 마포구 월드컵북로 120,1017,서울,국내,미등급,미분류,200개 이상,미분류,미분류,37.563947,126.913396
메리골드호텔,서울 마포구 양화로 112,1018,서울,국내,미등급,미분류,200개 이상,미분류,미분류,37.5533145498879,126.919762382021
호텔 더 디자이너스 홍대,서울 마포구 양화로 86,1019,서울,국내,미등급,80.0,100개 미만,관광호텔,분류,37.5519043347259,126.917577375484
호텔 디오레,서울 마포구 동교로 162-7,1020,서울,국내,미등급,미분류,200개 이상,미분류,미분류,37.5555495177465,126.920358786678
신라스테이 마포,서울 마포구 마포대로 83,1021,서울,국내,3성,382.0,200개 이상,관광호텔업,분류,37.5429126892832,126.949743489425
아만티호텔,서울 마포구 월드컵북로 31,1022,서울,국내,4성,150.0,200개 미만,관광호텔업,분류,37.5571973155482,126.918588432
나인브릭호텔,서울 마포구 홍익로5길 32,1023,서울,국내,미등급,94.0,100개 미만,관광호텔,분류,37.55374669741411,126.92060504086048
에이치에비뉴 호텔 이대점,서울 마포구 신촌로 152,1024,서울,국내,2성,94.0,100개 미만,관광호텔업,분류,37.5562218529393,126.94257524584876
글래드호텔 마포,서울 마포구 마포대로 92,1025,서울,국내,4성,378.0,200개 이상,관광호텔업,분류,37.5428436189268,126.95133595616
L7홍대,서울 마포구 양화로 141,1026,서울,국내,4성,340.0,200개 이상,관광호텔업,분류,37.5557239014991,126.921631579426
라이즈호텔,서울 마포구 양화로 130,1027,서울,국내,미등급,미분류,200개 이상,미분류,미분류,37.5544165882929,126.92127657051412
홀리데이인익스프레스 서울홍대,서울 마포구 양화로 188,1028,서울,국내,3성,294.0,200개 이상,관광호텔업,분류,37.5574814859968,126.927132488985
보보호텔,서울 마포구 양화로 94,1029,서울,국내,2성,55.0,100개 미만,관광호텔업,분류,37.5523115569246,126.918183623823
넘버25호텔 김포공항점,서울 강서구 남부순환로 188,1030,서울,국내,미등급,미분류,200개 이상,미분류,미분류,37.5485765625823,126.819654515252
골든서울호텔,서울 강서구 공항대로 663,1031,서울,국내,미등급,260.0,200개 이상,관광호텔,분류,37.5478945782355,126.878151774356
드어반관광호텔,서울 강서구 곰달래로24길 35,1032,서울,국내,1성,46.0,100개 미만,관광호텔업,분류,37.5290422594383,126.847315139173
롯데시티호텔 김포공항,서울 강서구 하늘길 38,1033,서울,국내,3성,197.0,200개 미만,관광호텔업,분류,37.563122163882205,126.80324048423569
메이필드호텔,서울 강서구 방화대로 94,1034,서울,국내,5성,239.0,200개 이상,관광호텔업,분류,37.5478957237892,126.819507121486
베니키아서울호텔,서울 강서구 화곡로68길 116,1035,서울,국내,미등급,미분류,200개 이상,미분류,미분류,37.5568140703885,126.859934129116
스탠다드호텔,서울 강서구 공항대로 518,1036,서울,국내,미등급,미분류,200개 이상,미분류,미분류,37.55103934806782,126.86358437449296
에스알 호텔 마곡,서울특별시 강서구 강서로 400,1037,서울,국내,3성,81.0,100개 미만,관광호텔업,분류,37.5610901,126.8394525
티제이관광호텔,서울 강서구 남부순환로 196,1038,서울,국내,1성,45.0,100개 미만,관광호텔업,분류,37.5479716814352,126.820040723065
해담채스테이,서울 강서구 곰달래로 70-1,1039,서울,국내,미등급,미분류,200개 이상,미분류,미분류,37.5300136784341,126.840602002087
호텔 디아망,서울 강서구 남부순환로 190,1040,서울,국내,1성,50.0,100개 미만,관광호텔업,분류,37.5483455760161,126.819437799813
호텔 에스,서울 강서구 곰달래로 108,1041,서울,국내,1성,86.0,100개 미만,관광호텔업,분류,37.5301865242737,126.844684792075
JK블라썸호텔,서울 강서구 양천로65길 41-22,1042,서울,국내,미등급,336.0,200개 이상,관광호텔,분류,37.5569115255206,126.867878866131
호텔 엠펠리체,서울특별시 강서구 마곡동로4길 15,1043,서울,국내,3성,118.0,200개 미만,관광호텔업,분류,37.5764888,126.8307466
코트야드 메리어트 서울 보타닉파크,서울 강서구 마곡중앙12로 10,1044,서울,국내,4성,262.0,200개 이상,관광호텔업,분류,37.56694613090683,126.82939330221224
로얄스퀘어호텔,서울 강서구 공항대로 30,1045,서울,국내,미등급,95.0,100개 미만,숙박업(생활),분류,37.56069560125753,126.81028560010049
포포인츠 바이 쉐라톤 서울 구로 (Four Points by Sheraton Seoul Guro),서울 구로구 디지털로32길 72,1046,서울,국내,4성,202.0,200개 이상,관광호텔업,분류,37.4831975508948,126.898929695371
쉐라톤 서울 디큐브시티 호텔,서울 구로구 경인로 662,1047,서울,국내,미등급,미분류,200개 이상,미분류,미분류,37.50910419634123,126.88958060554664
롯데시티호텔 구로,서울 구로구 디지털로 300,1048,서울,국내,3성,287.0,200개 이상,관광호텔업,분류,37.48492839090796,126.89653927877454
호텔 베르누이,서울 구로구 경인로 229,1049,서울,국내,미등급,미분류,200개 이상,미분류,미분류,37.4974351227601,126.845971598052
코코모호텔,서울 구로구 새말로 20,1050,서울,국내,2성,47.0,100개 미만,관광호텔업,분류,37.501988385153,126.883356292474
라마다 서울 신도림 호텔,서울 구로구 경인로 624,1051,서울,국내,4성,104.0,200개 미만,관광호텔업,분류,37.5062377156315,126.88539224869314
컬리넌 호텔구로,서울 구로구 시흥대로 533,1052,서울,국내,1성,68.0,100개 미만,관광호텔업,분류,37.481164748743694,126.89952023857684
이사벨관광호텔,서울 금천구 가산로 50,1054,서울,국내,미등급,미분류,200개 이상,미분류,미분류,37.47167719314984,126.897507139783
마인드(MIND)관광호텔,서울 금천구 남부순환로 1262,1055,서울,국내,2성,65.0,100개 미만,관광호텔업,분류,37.47889203251153,126.89097046258208
골드리버,서울 금천구 서부샛길 584,1056,서울,국내,3성,109.0,200개 미만,관광호텔업,분류,37.4783322835089,126.876980484436
호텔 해담채 가산,서울 금천구 벚꽃로56길 190,1057,서울,국내,미등급,미분류,200개 이상,미분류,미분류,37.4795017255715,126.88872649278
스타즈호텔 독산,서울 금천구 시흥대로 315,1058,서울,국내,미등급,미분류,200개 이상,미분류,미분류,37.4609911113644,126.896265163559
SI(에스아이),경남 창원시 진해구 신항로 434-1,1059,경상,국내,미등급,미분류,200개 이상,미분류,미분류,35.084964664621,128.785243648111
켄싱턴호텔 여의도,서울 영등포구 국회대로76길 16,1060,서울,국내,4성,225.0,200개 이상,관광호텔업,분류,37.5302591702075,126.921816732275
메리엇 이그제큐티브 아파트먼트 서울,서울 영등포구 여의대로 8,1061,서울,국내,미등급,미분류,200개 이상,미분류,미분류,37.52132731628651,126.91855570262244
코트야드 바이 메리어트 서울 타임스퀘어,서울 영등포구 영중로 15,1062,서울,국내,4성,283.0,200개 이상,관광호텔업,분류,37.5170754549269,126.903340879819
콘래드 서울 호텔,서울 영등포구 국제금융로 10,1063,서울,국내,5성,434.0,200개 이상,관광호텔업,분류,37.5255474148716,126.926208872494
로프트 관광호텔(HOTEL LOFT),서울 영등포구 선유동2로 72,1064,서울,국내,3성,58.0,100개 미만,관광호텔업,분류,37.53462878026919,126.89872670675136
호텔 브릿지 영등포,서울 영등포구 영등포로 9,1065,서울,국내,미등급,미분류,200개 이상,미분류,미분류,37.5237414488898,126.882580331463
글래드 여의도,서울 영등포구 의사당대로 16,1066,서울,국내,4성,319.0,200개 이상,관광호텔업,분류,37.5274439943249,126.917323278509
호텔조커Ⅰ,서울 영등포구 양산로1길 3-1,1067,서울,국내,미등급,미분류,200개 이상,미분류,미분류,37.5263466830835,126.883934931321
씨엘 관광호텔,서울 영등포구 영신로32길 8,1068,서울,국내,2성,50.0,100개 미만,관광호텔업,분류,37.51908009321168,126.90180757629942
영등포 칸 관광호텔,서울 영등포구 버드나루로 74,1069,서울,국내,미등급,미분류,200개 이상,미분류,미분류,37.5250190810582,126.909869618283
JARDIN HOTEL,서울 영등포구 영신로34길 33,1070,서울,국내,미등급,미분류,200개 이상,미분류,미분류,37.51915184322373,126.90470444646886
Chateau 관광호텔,서울 영등포구 선유로 100,1071,서울,국내,미등급,미분류,200개 이상,미분류,미분류,37.5227830656041,126.890373810635
브이아이피(VIP),서울 영등포구 경인로114나길 6,1072,서울,국내,미등급,미분류,200개 이상,미분류,미분류,37.5175785684005,126.913438784376
호텔 지엠에스[HOTEL GMS],서울 영등포구 경인로 867,1073,서울,국내,3성,159.0,200개 미만,관광호텔업,분류,37.51748386711501,126.90899592487028
더파크호텔,서울 영등포구 양평로 136,1075,서울,국내,미등급,미분류,200개 이상,미분류,미분류,37.5386755785897,126.893055915673
더 스테이트 선유호텔,서울 영등포구 양평로 132,1076,서울,국내,미등급,미분류,200개 이상,미분류,미분류,37.5385857621445,126.893369463406
베니키아 호텔 카카오,서울 영등포구 경인로108길 15,1077,서울,국내,미등급,미분류,200개 이상,미분류,미분류,37.5174815509817,126.911882647019
토요코인 서울영등포,서울 영등포구 신길로 293,1078,서울,국내,2성,379.0,200개 이상,관광호텔업,분류,37.51762220432792,126.91201256523036
신라스테이 구로,서울 동작구 시흥대로 596,1079,서울,국내,3성,309.0,200개 이상,관광호텔업,분류,37.48560612831725,126.90423261315748
카라쉬 관광 호텔,서울 동작구 동작대로1길 15,1080,서울,국내,미등급,미분류,200개 이상,미분류,미분류,37.477154912568,126.980414319458
핸드픽트 서울 호텔,서울 동작구 상도로 120,1081,서울,국내,3성,42.0,100개 미만,관광호텔업,분류,37.501241619023695,126.93357232214998
나이스타임 관광호텔,서울 관악구 신림로64길 28,1082,서울,국내,미등급,미분류,200개 이상,미분류,미분류,37.4849825518392,126.931305029104
신트라(SINTRA) 호텔,서울 관악구 신림로66길 16,1083,서울,국내,2성,54.0,100개 미만,관광호텔업,분류,37.4853198309625,126.930588550944
어반(Urban)호텔,서울 관악구 난곡로64길 5,1084,서울,국내,미등급,미분류,200개 이상,미분류,미분류,37.4813543776306,126.91497209646852
관광호텔뜨랑블루,서울 관악구 신림동7길 52,1085,서울,국내,미등급,66.0,100개 미만,관광호텔,분류,37.48463654893541,126.92677816575662
WD호텔,서울 관악구 신림로 349,1086,서울,국내,미등급,미분류,200개 이상,미분류,미분류,37.4855297789288,126.929243528484
CS프리미어호텔서울,서울 관악구 남부순환로 1458,1087,서울,국내,미등급,미분류,200개 이상,미분류,미분류,37.48119335130184,126.91284785827172
JW메리어트호텔서울,서울 서초구 신반포로 176,1088,서울,국내,5성,379.0,200개 이상,관광호텔업,분류,37.5043641148563,127.003620888061
더케이서울호텔,서울 서초구 바우뫼로12길 70,1089,서울,국내,4성,252.0,200개 이상,관광호텔업,분류,37.4667732404246,127.032815607548
더리버사이드호텔,서울 서초구 강남대로107길 6,1090,서울,국내,3성,109.0,200개 미만,관광호텔업,분류,37.5186452342764,127.018100876691
호텔 소설,충남 공주시 반포면 임금봉길 77-14,1091,충청,국내,미등급,미분류,200개 이상,미분류,미분류,36.3685551002033,127.254091766276
유원관광호텔,서울 서초구 반포대로12길 29,1092,서울,국내,1성,71.0,100개 미만,관광호텔업,분류,37.4852144611646,127.012853494146
프로비스타 가족호텔,서울 서초구 서초대로 338,1093,서울,국내,미등급,미분류,200개 이상,관광호텔,분류,37.49481393110293,127.018609871917
신라스테이 서초,서울 서초구 효령로 427,1095,서울,국내,3성,305.0,200개 이상,관광호텔업,분류,37.4894569593064,127.030126571449
오라카이청계산호텔,서울 서초구 청계산로9길 1-7,1096,서울,국내,4성,193.0,200개 미만,관광호텔업,분류,37.4492868224767,127.054752875829
호텔 더 캐슬(신천),서울 송파구 올림픽로12길 4-17,1097,서울,국내,1성,68.0,100개 미만,관광호텔업,분류,37.5110994136628,127.081809713798
부티크 호텔 XYM,서울 송파구 송이로 104,1098,서울,국내,1성,29.0,100개 미만,소형호텔업,분류,37.49689651948026,127.1213955298408
호텔 더 캐슬(방이1),서울 송파구 올림픽로32길 7,1099,서울,국내,2성,63.0,100개 미만,관광호텔업,분류,37.5154578710293,127.109087688609
호텔 라온,부산 해운대구 송정광어골로 39,1100,부산,국내,2성,67.0,100개 미만,관광호텔업,분류,35.17761050184228,129.1973511727091
산청한방가족호텔,경남 산청군 금서면 동의보감로479번길 43,1101,경상,국내,미등급,108.0,200개 미만,숙박업(생활),분류,35.438827198092,127.829928772221
라피스호텔,경남 남해군 창선면 서부로 1503-16,1102,경상,국내,미등급,미분류,200개 이상,미분류,미분류,34.9190444732378,128.026604514129
남해스포츠파크호텔,경남 남해군 서면 스포츠파크길 73,1103,경상,국내,미등급,미분류,200개 이상,미분류,미분류,34.80415863678158,127.83568365185582
오션스파호텔,경남 고성군 고성읍 신월로 60,1104,경상,국내,1성,27.0,100개 미만,소형호텔업,분류,34.95263711677704,128.33112792389016
부곡스파디움·따오기호텔,경남 창녕군 부곡면 온천중앙로 42,1105,경상,국내,2성,82.0,100개 미만,가족호텔업,분류,35.4389255672798,128.588742732191
브라운도트호텔 양산,경남 양산시 삼호로 197-16,1106,경상,국내,1성,40.0,100개 미만,관광호텔업,분류,35.4145380914687,129.168825415395
베니키아 양산호텔,경남 양산시 동면 금오10길 51,1107,경상,국내,미등급,82.0,100개 미만,관광호텔,분류,35.3147532278133,129.026015032634
메종드거제,경남 거제시 능포로 114,1108,경상,국내,미등급,미분류,200개 이상,미분류,미분류,34.8740415151544,128.731275652142
홈포레스트 리조트,경남 거제시 국산로 24-25,1109,경상,국내,미등급,미분류,200개 이상,미분류,미분류,34.9031870642114,128.6833749219777
한화리조트 거제 벨버디어,경남 거제시 장목면 거제북로 2501-40,1110,경상,국내,미등급,미분류,200개 이상,미분류,미분류,35.00791120571364,128.7117807193145
아르누보스위트호텔,경남 거제시 장평1로 13,1111,경상,국내,2성,96.0,100개 미만,관광호텔업,분류,34.891804249671395,128.6170574454791
코델리아호텔,제주특별자치도 서귀포시 성산읍 일주동로 4186,1112,제주,국내,3성,236.0,200개 이상,관광호텔_제주,분류,33.454927881840874,126.91027494492936
프래밀리 풀빌라,경남 거제시 일운면 거제대로 2308,1113,경상,국내,미등급,미분류,200개 이상,미분류,미분류,34.818104622436536,128.70466825318235
거제돔관광호텔,경남 거제시 일운면 거제대로 2372,1114,경상,국내,미등급,미분류,200개 이상,미분류,미분류,34.8224447219438,128.70996320102
거제오션호텔,경남 거제시 옥포로2길 13,1115,경상,국내,미등급,미분류,200개 이상,미분류,미분류,34.89075229288323,128.69614741810534
도야 가족호텔,경남 거제시 일운면 거제대로 2244,1116,경상,국내,미등급,미분류,200개 이상,미분류,미분류,34.8159864840176,128.704164534012
호텔리베라거제,경남 거제시 일운면 거제대로 2190,1117,경상,국내,3성,138.0,200개 미만,관광호텔업,분류,34.8113792901885,128.704157071171
거제 오아시스호텔,경남 거제시 장평4로2길 11-9,1118,경상,국내,2성,155.0,200개 미만,가족호텔업,분류,34.8859093355121,128.604035278108
거제도 바람의언덕 리조트,경남 거제시 남부면 해금강로 132,1119,경상,국내,미등급,30.0,100개 미만,숙박업(생활),분류,34.7397860710451,128.663445318738
아르누보스위트호텔,경남 거제시 장평1로 13,1120,경상,국내,미등급,미분류,200개 이상,미분류,미분류,34.891804249671395,128.6170574454791
더럭스관광호텔,경남 거제시 장승포로 93-1,1121,경상,국내,미등급,미분류,200개 이상,미분류,미분류,34.86386605246937,128.73065993386604
래디언스관광호텔,경남 거제시 옥포대첩로 425,1122,경상,국내,1성,30.0,100개 미만,관광호텔업,분류,34.914023874912345,128.71456529108607
호텔리베라거제,경남 거제시 일운면 거제대로 2190,1123,경상,국내,미등급,미분류,200개 이상,미분류,미분류,34.8113792901885,128.704157071171
관광호텔 상상속의 집,경남 거제시 일운면 거제대로 2752,1124,경상,국내,미등급,미분류,200개 이상,미분류,미분류,34.84745323601392,128.7098245582535
거제삼성호텔,경남 거제시 장평3로 80-37,1125,경상,국내,5성,166.0,200개 미만,관광호텔업,분류,34.89615653725726,128.612306621196
애드미럴 호텔,경남 거제시 서간도길 16,1126,경상,국내,미등급,미분류,200개 이상,미분류,미분류,34.889723,128.687988
호텔 아리나,경남 밀양시 삼문강변로 82,1127,경상,국내,4성,78.0,100개 미만,관광호텔업,분류,35.4839085,128.7511712
밀양 관광호텔,경남 밀양시 가곡7길 5-1,1128,경상,국내,2성,32.0,100개 미만,관광호텔업,분류,35.474590266799325,128.76728887173022
노마드호텔,경남 김해시 인제로91번길 5,1129,경상,국내,2성,46.0,100개 미만,관광호텔업,분류,35.2364762807068,128.904001127578
아이스퀘어호텔,경남 김해시 김해대로 2360,1130,경상,국내,미등급,181.0,200개 미만,관광호텔,분류,35.226014729066,128.88506953876
호텔 파인그로브,경남 김해시 번화1로67번길 20,1131,경상,국내,3성,66.0,100개 미만,관광호텔업,분류,35.192959781525374,128.79785308093878
사천 온천랜드앤 그랜드 관광호텔,경남 사천시 용현면 청골길 126,1132,경상,국내,미등급,46.0,100개 미만,일반호텔,분류,35.0497549314315,128.054906255822
호텔피어48,경남 통영시 정동3길 48,1133,경상,국내,미등급,미분류,200개 이상,미분류,미분류,34.84391459399081,128.43133440579572
조각의집,서울 서초구 사임당로14길 42,1134,서울,국내,미등급,미분류,200개 이상,미분류,미분류,37.4873501214093,127.01772380857
통영그란데호스텔,경남 통영시 진남아랫길 10,1135,경상,국내,미등급,미분류,200개 이상,미분류,미분류,34.8313665601927,128.406690206307
호텔 야자 통영여객선터미널점,경남 통영시 동충2길 9,1136,경상,국내,미등급,미분류,200개 이상,미분류,미분류,34.840490991384414,128.42222892995164
도르가관광호스텔,경남 통영시 새터길 74-9,1137,경상,국내,미등급,미분류,200개 이상,미분류,미분류,34.84132432304687,128.42087347700323
샐리스 제주호텔,제주특별자치도 제주시 애월읍 고내로 46,1138,제주,국내,미등급,미분류,200개 이상,미분류,미분류,33.46466120042004,126.34171599128403
아길라 호텔,제주특별자치도 제주시 한림읍 옹포2길 10,1139,제주,국내,미등급,32.0,100개 미만,숙박업(생활),분류,33.3999528942118,126.249493657118
스카이호텔,제주특별자치도 제주시 한림읍 한림로 917,1140,제주,국내,미등급,미분류,200개 이상,미분류,미분류,33.43280541275894,126.27618886152996
블루스프링 부띠끄 호텔,제주특별자치도 제주시 한림읍 한림로 330,1141,제주,국내,1성,31.0,100개 미만,가족호텔_제주,분류,33.39292966439031,126.24024265413908
통나무파크,제주특별자치도 제주시 애월읍 도치돌길 293,1142,제주,국내,미등급,미분류,200개 이상,미분류,미분류,33.410402001717785,126.36583112477696
아마스빌 호스텔,제주특별자치도 제주시 애월읍 신엄안3길 101,1143,제주,국내,미등급,미분류,200개 이상,미분류,미분류,33.47239453522297,126.35708659343784
에바다호스텔,제주특별자치도 제주시 현사길 45,1144,제주,국내,미등급,미분류,200개 이상,미분류,미분류,33.4972482986098,126.447302461098
카이 호스텔,제주 제주시 한림읍 협재2길 10,1145,제주,국내,미등급,미분류,200개 이상,미분류,미분류,33.3921371723412,126.241274905183
이호리조트,제주특별자치도 제주시 도리로 106-16,1146,제주,국내,미등급,미분류,200개 이상,미분류,미분류,33.499365444247395,126.46334929191958
씨클리프호텔제주(구.윈드힐호텔&리조트),제주 제주시 애월읍 애월해안로 554-8,1147,제주,국내,미등급,미분류,200개 이상,미분류,미분류,33.477648045180246,126.36284238550104
스완지,제주특별자치도 제주시 서해안로 84,1148,제주,국내,미등급,미분류,200개 이상,미분류,미분류,33.5030450491997,126.458221167653
엠제이호텔,제주특별자치도 제주시 신광로4길 16,1149,제주,국내,미등급,미분류,200개 이상,미분류,미분류,33.488993,126.48845
에덴호스텔,제주특별자치도 제주시 서해안로 456-12,1150,제주,국내,미등급,미분류,200개 이상,미분류,미분류,33.5183701715949,126.489189822593
조이 황토리조트,제주 제주시 애월읍 신상로 268,1151,제주,국내,미등급,미분류,200개 이상,미분류,미분류,33.4489681578962,126.36672772982284
레브호텔제주,제주특별자치도 제주시 은남1길 15,1152,제주,국내,미등급,미분류,200개 이상,미분류,미분류,33.48906720022915,126.49414696109343
호스텔 오렌지트리,제주 제주시 관덕로8길 7-12,1153,제주,국내,미등급,미분류,200개 이상,미분류,미분류,33.5123071952562,126.524339797891
하모니리조트,제주특별자치도 제주시 한림읍 협재로 213,1154,제주,국내,미등급,미분류,200개 이상,미분류,미분류,33.3793605386577,126.252084997079
씨앤힐 스파펜션,제주특별자치도 제주시 애월읍 애월해안로 412,1155,제주,국내,미등급,미분류,200개 이상,미분류,미분류,33.47295117277092,126.35247911861764
아모르하우스,서울 강남구 테헤란로13길 33,1156,서울,국내,미등급,미분류,200개 이상,미분류,미분류,37.5017318058335,127.031579874814
관광호스텔해밀,제주특별자치도 제주시 애월읍 광상로 272,1157,제주,국내,미등급,미분류,200개 이상,미분류,미분류,33.44362699019001,126.40409993700172
예그리나호스텔,제주특별자치도 제주시 구좌읍 일주동로 1845,1158,제주,국내,미등급,미분류,200개 이상,미분류,미분류,33.55641146765352,126.72856925746724
더비치,제주특별자치도 제주시 서해안로 486-4,1160,제주,국내,미등급,미분류,200개 이상,미분류,미분류,33.518525289742286,126.49073351282222
비스타리조트,제주특별자치도 제주시 서해안로 74,1161,제주,국내,미등급,미분류,200개 이상,미분류,미분류,33.5030458679839,126.457584061721
스카이관광호스텔,제주특별자치도 제주시 서광로29길 3,1162,제주,국내,미등급,미분류,200개 이상,미분류,미분류,33.50071390283031,126.52652863210407
호텔통 연동(구.조은호텔),제주 제주시 사장1길 28,1163,제주,국내,미등급,미분류,200개 이상,미분류,미분류,33.48538986773196,126.49266736455436
미라클호텔,경남 밀양시 산내면 얼음골옛길 358-9,1164,경상,국내,미등급,미분류,200개 이상,미분류,미분류,35.5774673295643,128.983158075215
엠버리조트,제주특별자치도 제주시 1100로 2671-51,1165,제주,국내,미등급,20.0,100개 미만,숙박업(생활),분류,33.4237259,126.4890631
우림호스텔,제주 제주시 애월읍 애월해안로 917,1167,제주,국내,미등급,미분류,200개 이상,미분류,미분류,33.484284860606095,126.39343672869998
나디아호스텔,제주특별자치도 제주시 애월읍 애원로 74,1168,제주,국내,미등급,미분류,200개 이상,미분류,미분류,33.458054871042,126.322396197868
레드클레이호스텔,제주특별자치도 제주시 애월읍 신상로 266,1169,제주,국내,미등급,미분류,200개 이상,미분류,미분류,33.44862386593389,126.36595640674592
노벨리조트,제주특별자치도 제주시 서해안로 122,1170,제주,국내,미등급,미분류,200개 이상,미분류,미분류,33.50240751531474,126.46233505620027
시드니호텔,제주특별자치도 제주시 애월읍 애월해안로 945,1171,제주,국내,미등급,미분류,200개 이상,미분류,미분류,33.483698083597034,126.3960532005792
썬비치리조트,제주특별자치도 제주시 서해안로 114,1172,제주,국내,미등급,미분류,200개 이상,미분류,미분류,33.5025144675781,126.461427177258
자몽호스텔,제주 제주시 한림읍 한림해안로 136,1173,제주,국내,미등급,미분류,200개 이상,미분류,미분류,33.41488628872262,126.2613380471232
씨스테이호텔,강원 양양군 강현면 물치3길 6,1174,강원,국내,미등급,미분류,200개 이상,미분류,미분류,38.15746705568201,128.6082853614363
나이스캣 호텔앤게스트하우스,제주특별자치도 제주시 논세길 96-38,1175,제주,국내,미등급,미분류,200개 이상,미분류,미분류,33.482972986056105,126.44237175562678
리벤시아호스텔,제주 제주시 한림읍 한림로 33,1176,제주,국내,미등급,미분류,200개 이상,미분류,미분류,33.37721037545616,126.21844869706204
흰수염고래 리조트,제주특별자치도 제주시 애월읍 일주서로 6818,1177,제주,국내,미등급,미분류,200개 이상,미분류,미분류,33.4750280610371,126.380634287507
알리바호텔,제주특별자치도 제주시 서광로 251,1178,제주,국내,미등급,28.0,100개 미만,숙박업(생활),분류,33.49998050154251,126.52336551458156
삼다호스텔,제주특별자치도 제주시 서해안로 456-6,1179,제주,국내,미등급,미분류,200개 이상,미분류,미분류,33.518170441830875,126.48885516808664
노형호텔,제주특별자치도 제주시 수덕1길 7,1180,제주,국내,미등급,48.0,100개 미만,숙박업(생활),분류,33.4861260900771,126.478137175726
물뜰에 쉼팡 리조트,제주특별자치도 제주시 한림읍 귀덕로 73,1181,제주,국내,미등급,미분류,200개 이상,미분류,미분류,33.437978575106,126.297805929186
메이저2호스텔,제주특별자치도 제주시 은남4길 40,1182,제주,국내,미등급,미분류,200개 이상,미분류,미분류,33.4865464345381,126.491524384186
라인호텔,제주특별자치도 제주시 동광로 40,1183,제주,국내,미등급,미분류,200개 이상,미분류,미분류,33.50219978556,126.533197150874
뷰띠끄 헤르츠 호텔,제주특별자치도 제주시 중앙로 252,1184,제주,국내,미등급,미분류,200개 이상,미분류,미분류,33.49737387366441,126.53113107874368
나비스 호스텔,제주특별자치도 제주시 애월읍 애월해안로 885,1185,제주,국내,미등급,미분류,200개 이상,미분류,미분류,33.4864574587968,126.391551541471
제주담 스파빌,제주특별자치도 제주시 한림읍 한림로 162,1186,제주,국내,미등급,미분류,200개 이상,미분류,미분류,33.3856390162412,126.22530197142
호텔몽듀,제주특별자치도 제주시 서해안로 382,1187,제주,국내,미등급,미분류,200개 이상,미분류,미분류,33.51267451405757,126.4845402918902
더포힐스(구.제이바다),제주 제주시 서해안로 258,1188,제주,국내,미등급,미분류,200개 이상,미분류,미분류,33.5090895798352,126.473341536742
메르블루,경기 시흥시 서해안로 1032-12,1189,경기,국내,미등급,미분류,200개 이상,미분류,미분류,37.40584246393589,126.75375559924257
더제이드,제주특별자치도 제주시 관덕로15길 7-1,1190,제주,국내,미등급,미분류,200개 이상,미분류,미분류,33.51390648438866,126.52665913241948
크라운관광호텔 창원,서울 용산구 녹사평대로 140,1191,서울,국내,3성,204.0,200개 이상,관광호텔업,분류,37.5315696887972,126.99066843796
에비뉴관광호텔,경남 창원시 성산구 용지로169번길 5,1192,경상,국내,3성,60.0,100개 미만,관광호텔업,분류,35.23012422572361,128.68152000440168
그랜드머큐어앰배서더창원,경남 창원시 성산구 원이대로 332,1193,경상,국내,4성,321.0,200개 이상,관광호텔업,분류,35.2391396272214,128.65481090294088
호텔인터내셔널,경남 창원시 성산구 중앙대로 69,1194,경상,국내,4성,121.0,200개 미만,관광호텔업,분류,35.2214707868487,128.677046663418
창원호텔,경남 창원시 성산구 중앙대로39번길 14,1195,경상,국내,미등급,미분류,200개 이상,미분류,미분류,35.22026178676391,128.67511482807674
올림픽호텔,경남 창원시 성산구 중앙대로 81,1196,경상,국내,1성,86.0,100개 미만,관광호텔업,분류,35.22247742072797,128.6781410316544
베스트루이스해밀턴호텔 창원점,경남 창원시 성산구 마디미로70번길 10,1197,경상,국내,미등급,미분류,200개 이상,미분류,미분류,35.21959152611985,128.68075246990225
사보이관광호텔,경남 창원시 마산합포구 삼호로 39,1198,경상,국내,미등급,미분류,200개 이상,미분류,미분류,35.22104392818431,128.58615776701518
마산관광호텔,경남 창원시 마산합포구 수산1길 285,1199,경상,국내,2성,42.0,100개 미만,관광호텔업,분류,35.2060781110124,128.584430368559
스카이뷰관광호텔,경남 창원시 마산합포구 해안대로 317,1200,경상,국내,3성,94.0,100개 미만,관광호텔업,분류,35.20093727929699,128.57532814185765
사과나무관광호텔,경남 창원시 마산합포구 가포신항북로 16,1201,경상,국내,1성,41.0,100개 미만,관광호텔업,분류,35.16871459139983,128.57530774382866
아몬드관광호텔,경남 창원시 마산합포구 월영동11길 19,1202,경상,국내,미등급,미분류,200개 이상,미분류,미분류,35.18069887107,128.565061671282
아모르관광호텔 마산,경남 창원시 마산합포구 수산1길 3,1203,경상,국내,미등급,미분류,200개 이상,미분류,미분류,35.1983089732114,128.572702804044
마산아리랑관광호텔,경남 창원시 마산회원구 마산역광장로 24,1204,경상,국내,미등급,미분류,200개 이상,미분류,미분류,35.2346547469179,128.577716534948
브라운도트관광호텔,경남 창원시 진해구 용원동로221번길 60-7,1205,경상,국내,2성,39.0,100개 미만,관광호텔업,분류,35.0917556069835,128.81261491353328
주식회사비즈관광호텔,경남 창원시 진해구 진해대로 2116,1206,경상,국내,2성,35.0,100개 미만,관광호텔업,분류,35.117023411706086,128.79751869247497
